place_id,place_name,latitude,longitude,category_code,category_description,sha_name,sha_type_code,sha_type_description,sha_cate_id,sha_cate_description,address,sub_district,district,province,postcode,thumbnail_url,destination,tags,distance,update_date
P03013220,Wat Ratchabophit Sathitmahasimaram,13.74913215,100.49734105,ATTRACTION,Attraction,,,,,,2 Fueang Nakhon Road,Wat Ratchabophit,Phra Nakhon,Bangkok,10200,https://tatapi.tourismthailand.org/tatfs/Image/CustomPOI/Thumbnail/P03013220.jpeg,BANGKOK,N/A,0.0,2024-05-27T14:30:11.51
P03013472,Wat Yan Nawa,13.71733259,100.51355185,ATTRACTION,Attraction,,,,,,40 Charoen Krung Road,Yan Nawa,Sathon,Bangkok,10120,https://tatapi.tourismthailand.org/tatfs/Image/CustomPOI/Thumbnail/P03013472.jpeg,BANGKOK,N/A,0.0,2024-05-24T15:09:37.447
P03013449,Tiger God Shrine,13.75385222,100.49831897,ATTRACTION,Attraction,,,,,,468 Tanao Road,San Chaopho Suea,Phra Nakhon,Bangkok,10200,https://tatapi.tourismthailand.org/tatfs/Image/CustomPOI/Thumbnail/P03013449.jpeg,BANGKOK,N/A,0.0,2024-05-24T15:04:50.82
P03013827,Wat Thewarat Kunchorn Worawiharn,13.77230279,100.50195656,ATTRACTION,Attraction,,,,,,,Wachira Phayaban,Dusit,Bangkok,10300,https://tatapi.tourismthailand.org/tatfs/Image/CustomPOI/Thumbnail/P03013827.jpeg,BANGKOK,N/A,0.0,2024-05-24T14:40:56.073
P03013469,Wat Apson Sawan Worawihan,13.72002996,100.46988559,ATTRACTION,Attraction,,,,,,,Pak Khlong Phasi Charoen,Phasi Charoen,Bangkok,10160,https://tatapi.tourismthailand.org/tatfs/Image/CustomPOI/Thumbnail/P03013469.jpeg,BANGKOK,N/A,0.0,2024-05-24T14:33:22.5
P03014429,Wat Ratchaorasaram Ratchaworawihan,13.7028835,100.4643144,ATTRACTION,Attraction,,,,,,"258 Soi Ekkachai 4, Ekkachai Road",Bang Khun Thian,Chom Thong,Bangkok,10150,https://tatapi.tourismthailand.org/tatfs/Image/CustomPOI/Thumbnail/P03014429.jpeg,BANGKOK,N/A,0.0,2024-05-23T13:17:47.82
P03014426,Wat Ratchaburana (Bangkok),13.74238137,100.4991087,ATTRACTION,Attraction,,,,,,119 Chakphet Road,Wang Burapha Phirom,Phra Nakhon,Bangkok,10200,https://tatapi.tourismthailand.org/tatfs/Image/CustomPOI/Thumbnail/P03014426.jpeg,BANGKOK,['วัดเลียบ'],0.0,2024-04-11T15:35:30.617
P03025442,Wat Rakhangkhositaram Woramahawihan,13.75268789,100.48544464,ATTRACTION,Attraction,,,,,,,Sirirat,Bangkok Noi,Bangkok,10700,https://tatapi.tourismthailand.org/tatfs/Image/CustomPOI/Thumbnail/P03025442.jpeg,BANGKOK,['วัดระฆัง'],0.0,2024-04-11T15:20:02.5
P03025435,Wat Phra Chetuphon Wimonmangkalaram Ratchaworamahawihan or Wat Pho,13.74651621,100.49372618,ATTRACTION,Attraction,,,,,,"Phra Nakhon, Bangkok",Phraborom Maharatchawang,Phra Nakhon,Bangkok,10200,https://tatapi.tourismthailand.org/tatfs/Image/CustomPOI/Thumbnail/P03025435.jpeg,BANGKOK,"['Wat Pho', 'วัดโพธิ์']",0.0,2024-04-11T14:22:47.053
P03018425,Wat Hong Rattanaram Ratchaworawihan,13.73937511,100.4881195,ATTRACTION,Attraction,Wat Hong Rattanaram Ratchaworawihan,3,Recreational activity and tourist attraction,1,SHA,72 Wangderm Road,Wat Arun,Bangkok Yai,Bangkok,10600,https://tatapi.tourismthailand.org/tatfs/Image/CustomPOI/Thumbnail/P03018425.jpeg,BANGKOK,N/A,0.0,2024-04-11T14:15:23.383
P03025441,Wat Arun Ratchawararam Ratchawaramahawihan,13.74435548,100.48808184,ATTRACTION,Attraction,,,,,,,Wat Arun,Bangkok Yai,Bangkok,10600,https://tatapi.tourismthailand.org/tatfs/Image/CustomPOI/Thumbnail/P03025441.jpeg,BANGKOK,"['Wat Arun', 'วัดอรุณ']",0.0,2024-03-08T14:57:48.033
P03007639,"Museum Siam, a learning museum",13.74417453,100.49416461,ATTRACTION,Attraction,Museum Siam,3,Recreational activity and tourist attraction,2,SHA Plus,Sanam Chai Road,Phraborom Maharatchawang,Phra Nakhon,Bangkok,10200,https://tatapi.tourismthailand.org/tatfs/Image/custompoi/Thumbnail/P03007639.jpg,BANGKOK,N/A,0.0,2024-02-23T15:17:07.253
P03022261,Jodd Fairs,13.75693419,100.5669772,ATTRACTION,Attraction,Jodd Fairs,3,Recreational activity and tourist attraction,1,SHA,behind Central Rama 9 Department Store,Huai Khwang,Huai Khwang,Bangkok,10310,https://tatapi.tourismthailand.org/tatfs/Image/CustomPOI/Thumbnail/P03022261.jpeg,BANGKOK,N/A,0.0,2024-02-23T15:06:05.467
P03025470,Talat Phlu,13.71848085,100.47478536,ATTRACTION,Attraction,,,,,,,Talat Phlu,Thon Buri,Bangkok,10600,https://tatapi.tourismthailand.org/tatfs/Image/CustomPOI/Thumbnail/P03025470.jpeg,BANGKOK,N/A,0.0,2024-02-23T14:55:46.367
P03014397,Wat Prayurawongsawat Worawihan,13.73675108,100.4956928,ATTRACTION,Attraction,Wat Prayurawongsawas Waraviharn,3,Recreational activity and tourist attraction,1,SHA,,Wat Kanlaya,Thon Buri,Bangkok,10600,https://tatapi.tourismthailand.org/tatfs/Image/CustomPOI/Thumbnail/P03014397.jpeg,BANGKOK,['วัด'],0.0,2024-02-23T14:51:24.95
P03013457,Wat Kalayanamit Woramahawiharn,13.7398839,100.49125164,ATTRACTION,Attraction,Wat Kalayanamitr Varamahavihara,3,Recreational activity and tourist attraction,1,SHA,Arun Ammarin Road,Wat Kanlaya,Thon Buri,Bangkok,10600,https://tatapi.tourismthailand.org/tatfs/Image/CustomPOI/Thumbnail/P03013457.jpeg,BANGKOK,['วัด'],0.0,2024-02-23T14:44:32.037
P01002475,Siam Amazing Park,13.80748115,100.69394096,ATTRACTION,Attraction,Siam Amazing Park,3,Recreational activity and tourist attraction,2,SHA Plus,,Khan Na Yao,Khan Na Yao,Bangkok,10230,https://tatapi.tourismthailand.org/tatfs/Image/CustomPOI/Thumbnail/P01002475.jpeg,BANGKOK,N/A,0.0,2024-02-23T14:39:47.723
P03012197,Siam Serpentarium,13.71041768,100.82393738,ATTRACTION,Attraction,Siam Serpentarium,3,Recreational activity and tourist attraction,2,SHA Plus,,Thap Yao,Lat Krabang,Bangkok,10520,https://tatapi.tourismthailand.org/tatfs/Image/CustomPOI/Thumbnail/P03012197.jpeg,BANGKOK,N/A,0.0,2024-02-23T14:30:56.48
P03014670,Kwan Riam Floating Market,13.7991771,100.70957739,ATTRACTION,Attraction,,,,,,"45 Soi Ramkhamhaeng 187, Ramkhamhaeng Road",Min Buri,Min Buri,Bangkok,10510,https://tatapi.tourismthailand.org/tatfs/Image/CustomPOI/Thumbnail/P03014670.jpeg,BANGKOK,N/A,0.0,2024-02-23T14:19:34.057
P03025469,Chatuchak Weekend Market,13.799065,100.550227,ATTRACTION,Attraction,,,,,,Kamphaeng Phet Road,Chatuchak,Chatuchak,Bangkok,10900,https://tatapi.tourismthailand.org/tatfs/Image/CustomPOI/Thumbnail/P03025469.jpeg,BANGKOK,N/A,0.0,2024-02-21T16:10:26.98
P03013237,Safari World,13.86729747,100.70297216,ATTRACTION,Attraction,SAFARIWORLD,3,Recreational activity and tourist attraction,1,SHA,99 Ram Inthra Road,Sam Wa Tawan Tok,Khlong Sam wa,Bangkok,10510,https://tatapi.tourismthailand.org/tatfs/Image/CustomPOI/Thumbnail/P03013237.jpeg,BANGKOK,['ซาฟารีเวิลด์'],0.0,2024-02-21T15:50:58.4
P03025467,Uncle Ree Farm,13.71932654,100.44770001,ATTRACTION,Attraction,,,,,,Soi Phet Kasem 46,Bang wa,Phasi Charoen,Bangkok,10160,https://tatapi.tourismthailand.org/tatfs/Image/CustomPOI/Thumbnail/P03025467.jpeg,BANGKOK,['ฟาร์มลุงรีย์'],0.0,2024-02-21T15:45:38.097
P03025466,"Khlong Bang Luang Community and Artist’s House, Khlong Bang Luang",13.7319064,100.46297316,ATTRACTION,Attraction,,,,,,Soi Phet Kasem 28,Khuha Sawan,Phasi Charoen,Bangkok,10160,https://tatapi.tourismthailand.org/tatfs/Image/CustomPOI/Thumbnail/P03025466.jpeg,BANGKOK,['คลองบางหลวง'],0.0,2024-02-21T15:37:00.573
P03018144,Metro Forest,13.691837,100.70271569,ATTRACTION,Attraction,Metro Forest Learning Center,3,Recreational activity and tourist attraction,1,SHA,81 Sukhaphiban 2 Road,Dokmai,Prawet,Bangkok,10250,https://tatapi.tourismthailand.org/tatfs/Image/CustomPOI/Thumbnail/P03018144.jpeg,BANGKOK,N/A,0.0,2024-02-21T13:53:09.483
P03025463,"Street Art, Charoen Krung Road",13.72743627,100.51450491,ATTRACTION,Attraction,,,,,,,Bang Rak,Bang Rak,Bangkok,10500,https://tatapi.tourismthailand.org/tatfs/Image/CustomPOI/Thumbnail/P03025463.jpeg,BANGKOK,['Street Art'],0.0,2024-02-21T13:46:24.24
P03022263,Patpong Museum,13.72883531,100.53202398,ATTRACTION,Attraction,Patpong Museum,3,Recreational activity and tourist attraction,1,SHA,"5, 2nd floor, Patpong2, Suriyawong, Bangrak, Bangkok",Suriyawong,Bang Rak,Bangkok,10500,https://tatapi.tourismthailand.org/tatfs/Image/CustomPOI/Thumbnail/P03022263.jpeg,BANGKOK,['พัฒน์พงศ์'],0.0,2024-02-21T13:44:14.517
P03014462,Bangkok Railway Station (Hua Lamphong),13.73941971,100.5167828,ATTRACTION,Attraction,,,,,,,Rong Mueang,Pathum Wan,Bangkok,10330,https://tatapi.tourismthailand.org/tatfs/Image/CustomPOI/Thumbnail/P03014462.jpeg,BANGKOK,['หัวลำโพง'],0.0,2024-02-21T11:58:15.087
P03014759,Sea Life Bangkok Ocean World,13.74596126,100.53518391,ATTRACTION,Attraction,SEA LIFE Bangkok Ocean World,3,Recreational activity and tourist attraction,2,SHA Plus,,Pathum Wan,Pathum Wan,Bangkok,10330,https://tatapi.tourismthailand.org/tatfs/Image/CustomPOI/Thumbnail/P03014759.jpeg,BANGKOK,['Sea Life Bangkok Ocean World'],0.0,2024-02-21T11:56:16.2
P03013612,China Town,13.741353,100.508044,ATTRACTION,Attraction,,,,,,Yaowarat Road,Samphanthawong,Samphanthawong,Bangkok,10100,https://tatapi.tourismthailand.org/tatfs/Image/CustomPOI/Thumbnail/P03013612.jpeg,BANGKOK,"['China Town', 'เยาวราช']",0.0,2024-02-21T11:51:38.09
P03025459,Ong Ang Walking Street,13.74451653,100.5027208,ATTRACTION,Attraction,,,,,,,Wang Burapha Phirom,Phra Nakhon,Bangkok,10200,https://tatapi.tourismthailand.org/tatfs/Image/CustomPOI/Thumbnail/P03025459.jpeg,BANGKOK,['คลองโอ่งอ่าง'],0.0,2024-02-21T11:46:44.867
P03025458,Wat Traimit Withayaram,13.73803008,100.51399681,ATTRACTION,Attraction,,,,,,,Talat Noi,Samphanthawong,Bangkok,10100,https://tatapi.tourismthailand.org/tatfs/Image/CustomPOI/Thumbnail/P03025458.jpeg,BANGKOK,['วัดไตรมิตรวิทยาราม'],0.0,2024-02-21T11:42:18.39
P03025457,Talat Noi,13.73471127,100.51343464,ATTRACTION,Attraction,,,,,,,Talat Noi,Samphanthawong,Bangkok,10100,https://tatapi.tourismthailand.org/tatfs/Image/CustomPOI/Thumbnail/P03025457.jpeg,BANGKOK,['ตลาดน้อย'],0.0,2024-02-21T11:38:26.49
P01000255,Khlong Lat Mayom Floating Market,13.76196384,100.41553528,ATTRACTION,Attraction,,,,,,,Bang Ramat,Taling Chan,Bangkok,10170,https://tatapi.tourismthailand.org/tatfs/Image/CustomPOI/Thumbnail/P01000255.jpeg,BANGKOK,['ตลาดน้ำ'],0.0,2024-02-21T11:34:29.43
P03013462,Talingchan Floating Market,13.77625883,100.45649951,ATTRACTION,Attraction,,,,,,,Khlong Chak Phra,Taling Chan,Bangkok,10170,https://tatapi.tourismthailand.org/tatfs/Image/CustomPOI/Thumbnail/P03013462.jpeg,BANGKOK,['ตลาดน้ำตลิ่งชัน'],0.0,2024-02-21T11:32:12.523
P03013225,Wat Saket and the Golden Mount,13.75389022,100.5084053,ATTRACTION,Attraction,Wat Saket Ratchaworamahawihan,3,Recreational activity and tourist attraction,1,SHA,344 Chakkraphatdiphong Road,Ban Bat,Pom Prap Sattru Phai,Bangkok,10100,https://tatapi.tourismthailand.org/tatfs/Image/CustomPOI/Thumbnail/P03013225.jpeg,BANGKOK,N/A,0.0,2024-02-21T10:43:54.953
P01002811,Asiatique The Riverfront,13.703945,100.503379,ATTRACTION,Attraction,ASIATIQUE THE RIVERFRONT,7,Department store And shopping centers,2,SHA Plus,,Wat Phraya Krai,Bang Kho Laem,Bangkok,10120,https://tatapi.tourismthailand.org/tatfs/Image/CustomPOI/Thumbnail/P01002811.jpeg,BANGKOK,N/A,0.0,2024-02-21T10:38:04.167
P03018087,Rattanakosin Exhibition Hall,13.75593726,100.50367953,ATTRACTION,Attraction,Rattanakosin Exhibition Hall,3,Recreational activity and tourist attraction,2,SHA Plus,100 Ratchadamnoen Klang Road,Bowon Niwet,Phra Nakhon,Bangkok,10200,https://tatapi.tourismthailand.org/tatfs/Image/custompoi/Thumbnail/P03018087.jpg,BANGKOK,['นิทรรศน์รัตนโกสินทร์'],0.0,2024-02-21T10:32:08.07
P03013450,Khao San Road,13.75886683,100.49735608,ATTRACTION,Attraction,,,,,,Khao San Road,Talat Yot,Phra Nakhon,Bangkok,10200,https://tatapi.tourismthailand.org/tatfs/Image/CustomPOI/Thumbnail/P03013450.jpeg,BANGKOK,"['Khao San Road', 'ถนนข้าวสาร']",0.0,2024-02-20T15:25:07.257
P03025241,Chao Phraya Sky Park,13.73961942,100.49904282,ATTRACTION,Attraction,,,,,,,Wang Burapha Phirom,Phra Nakhon,Bangkok,10200,https://tatapi.tourismthailand.org/tatfs/image/CustomPOI/Thumbnail/P03025241.jpeg,BANGKOK,N/A,0.0,2024-02-20T15:18:04.713
P03011217,Coin Museum,13.759041,100.494729,ATTRACTION,Attraction,The Coin Museum,3,Recreational activity and tourist attraction,2,SHA Plus,ถนนจักรพงษ์,Chana Songkhram,Phra Nakhon,Bangkok,10200,https://tatapi.tourismthailand.org/tatfs/Image/custompoi/Thumbnail/P03011217.jpg,BANGKOK,N/A,0.0,2024-02-20T15:14:32.133
P03013447,Wat Suthatthepwararam Ratchaworamahawihan,13.75108141,100.50107177,ATTRACTION,Attraction,,,,,,146 Bamrung Mueang Road,Wat Ratchabophit,Phra Nakhon,Bangkok,10200,https://tatapi.tourismthailand.org/tatfs/Image/CustomPOI/Thumbnail/P03013447.jpeg,BANGKOK,N/A,0.0,2024-02-19T16:51:34.007
P03025438,Wat Ratchanatdaram Worawihan (Loha Prasat),13.75474705,100.50459452,ATTRACTION,Attraction,,,,,,Maha Chai Road,Bowon Niwet,Phra Nakhon,Bangkok,10200,https://tatapi.tourismthailand.org/tatfs/Image/CustomPOI/Thumbnail/P03025438.jpeg,BANGKOK,['วัดราชนัดดารามวรวิหาร'],0.0,2024-02-19T13:50:09.61
P03014396,Wat Bowon Niwet Ratchawarawihan ,13.76010327,100.49973053,ATTRACTION,Attraction,,,,,,Phra Sumern Road,Bowon Niwet,Phra Nakhon,Bangkok,10200,https://tatapi.tourismthailand.org/tatfs/Image/CustomPOI/Thumbnail/P03014396.jpeg,BANGKOK,N/A,0.0,2024-02-19T13:42:10.783
P03013445,The Queen's Gallery,13.75655722,100.5051436,ATTRACTION,Attraction,The Queen’s Gallery,9,"Activity/meeting, Theater/entertainment",1,SHA,101 Ratchadamnoen Klang Road,Bowon Niwet,Phra Nakhon,Bangkok,10200,https://tatapi.tourismthailand.org/tatfs/Image/custompoi/Thumbnail/P03013445.jpg,BANGKOK,N/A,0.0,2024-02-12T15:07:52.353
P03013231,Benchakiti park,13.73043121,100.55757357,ATTRACTION,Attraction,,,,,,Ratchadaphisek Road,Khlong Toei,Khlong Toei,Bangkok,10110,https://tatapi.tourismthailand.org/tatfs/Image/CustomPOI/Thumbnail/P03013231.jpeg,BANGKOK,N/A,0.0,2024-02-12T14:11:26.25
P03012239,Erawan Shrine,13.744251,100.540397,ATTRACTION,Attraction,,,,,,,Lumphini,Pathum Wan,Bangkok,10330,https://tatapi.tourismthailand.org/tatfs/Image/CustomPOI/Thumbnail/P03012239.jpeg,BANGKOK,N/A,0.0,2024-02-12T14:03:05.2
P03007495,Sao Chingcha,13.75181942,100.5012976,ATTRACTION,Attraction,,,,,,,Sao Chingcha,Phra Nakhon,Bangkok,10200,https://tatapi.tourismthailand.org/tatfs/Image/CustomPOI/Thumbnail/P03007495.jpeg,BANGKOK,N/A,0.0,2024-02-12T13:52:05.74
P03013233,Lumpini Park,13.73131186,100.54164355,ATTRACTION,Attraction,,,,,,192 Wireless Road,Lumphini,Pathum Wan,Bangkok,10330,https://tatapi.tourismthailand.org/tatfs/Image/CustomPOI/Thumbnail/P03013233.jpeg,BANGKOK,N/A,0.0,2024-02-12T13:37:12.787
P03013230,Victory Monument,13.76494119,100.5383027,ATTRACTION,Attraction,,,,,,Phahon Yothin Road,Thung Phaya Thai,Ratchathewi,Bangkok,10400,https://tatapi.tourismthailand.org/tatfs/IMAGE/CustomPOI/Thumbnail/P03013230_pic1.jpg,BANGKOK,N/A,0.0,2024-02-12T13:25:34.087
P03025443,Wang Lang Market,13.75521042,100.48524464,ATTRACTION,Attraction,,,,,,Wang Lang Road,Sirirat,Bangkok Noi,Bangkok,10700,https://tatapi.tourismthailand.org/tatfs/Image/CustomPOI/Thumbnail/P03025443.jpeg,BANGKOK,['ตลาดวังหลัง'],0.0,2024-02-12T10:38:00.963
P03002579,The Grand Palace,13.74983106,100.4912889,ATTRACTION,Attraction,The Grand Palace,3,Recreational activity and tourist attraction,1,SHA,,Phraborom Maharatchawang,Phra Nakhon,Bangkok,10200,https://tatapi.tourismthailand.org/tatfs/Image/custompoi/Thumbnail/P03002579.jpg,BANGKOK,N/A,0.0,2024-02-12T10:22:28.337
P03013465,National Library of Thailand,13.77238106,100.50494478,ATTRACTION,Attraction,,,,,,Sam Sen Road,Wachira Phayaban,Dusit,Bangkok,10300,https://tatapi.tourismthailand.org/tatfs/Image/CustomPOI/Thumbnail/P03013465.jpeg,BANGKOK,N/A,0.0,2024-02-08T15:11:56.04
P03013226,Wat Benchamabophit,13.76664862,100.51398506,ATTRACTION,Attraction,,,,,,69 Rama 5 Road,Dusit,Dusit,Bangkok,10300,https://tatapi.tourismthailand.org/tatfs/Image/CustomPOI/Thumbnail/P03013226.jpeg,BANGKOK,['วัดเบญจมบพิตร'],0.0,2024-02-08T14:50:20.683
P03025440,Nang Loeng Market,13.75912684,100.51213191,ATTRACTION,Attraction,,,,,,,Wat Sommanat,Pom Prap Sattru Phai,Bangkok,10100,https://tatapi.tourismthailand.org/tatfs/Image/CustomPOI/Thumbnail/P03025440.jpeg,BANGKOK,['ตลาดนางเลิ้ง'],0.0,2024-02-08T14:42:56.327
P03014597,Woradit Palace Museum and Damrong Rachanuphap Library,13.755936,100.51236,ATTRACTION,Attraction,,,,,,,Khlong Mahanak,Pom Prap Sattru Phai,Bangkok,10100,,BANGKOK,N/A,0.0,2024-02-08T14:38:09.237
P03013494,Wat Sommanat Ratchaworawihan,13.76064654,100.51052646,ATTRACTION,Attraction,,,,,,646 Krung Kasem Road,Wat Sommanat,Pom Prap Sattru Phai,Bangkok,10100,https://tatapi.tourismthailand.org/tatfs/Image/CustomPOI/Thumbnail/P03013494.jpeg,BANGKOK,N/A,0.0,2024-02-08T14:25:59.657
P03018093,Wang Derm Palace,13.7426875,100.48979154,ATTRACTION,Attraction,,,,,,,Wat Arun,Bangkok Yai,Bangkok,10600,https://tatapi.tourismthailand.org/tatfs/Image/CustomPOI/Thumbnail/P03018093.jpeg,BANGKOK,N/A,0.0,2024-02-08T13:55:00.707
P03013214,National Museum of Royal Barges,13.76196678,100.48459662,ATTRACTION,Attraction,,,,,,80/1 Arun Ammarin Road,Arun Ammarin,Bangkok Noi,Bangkok,10700,https://tatapi.tourismthailand.org/tatfs/IMAGE/CustomPOI/Thumbnail/P03013214_pic1.jpg,BANGKOK,N/A,0.0,2024-02-08T13:34:24.59
P03013152,Siriraj Phimukhsthan Museum,13.75972996,100.4868832,ATTRACTION,Attraction,Siriraj Bimuksthan Museum,3,Recreational activity and tourist attraction,2,SHA Plus,2 wanglang road,Sirirat,Bangkok Noi,Bangkok,10700,https://tatapi.tourismthailand.org/tatfs/Image/custompoi/Thumbnail/P03013152.JPG,BANGKOK,N/A,0.0,2024-02-08T13:27:41.333
P03013235,Saranrom Park,13.74846608,100.49492622,ATTRACTION,Attraction,,,,,,Charoen Krung Road,Phraborom Maharatchawang,Phra Nakhon,Bangkok,10200,https://tatapi.tourismthailand.org/tatfs/IMAGE/CustomPOI/Thumbnail/P03013235_pic1.jpg,BANGKOK,N/A,0.0,2024-02-08T13:20:12.367
P03013204,Bangkok City Pillar Shrine,13.75255835,100.49405412,ATTRACTION,Attraction,Bangkok City Pillar Shrine,3,Recreational activity and tourist attraction,1,SHA,2 Lak Muang road,Phraborom Maharatchawang,Phra Nakhon,Bangkok,10200,https://tatapi.tourismthailand.org/tatfs/Image/CustomPOI/Thumbnail/P03013204.jpeg,BANGKOK,N/A,0.0,2024-02-08T13:16:00.74
P03013203,Sanam Luang,13.75607555,100.49335564,ATTRACTION,Attraction,,,,,,Ratchadamnoen Nai Road,Phraborom Maharatchawang,Phra Nakhon,Bangkok,10200,https://tatapi.tourismthailand.org/tatfs/Image/CustomPOI/Thumbnail/P03013203.jpeg,BANGKOK,N/A,0.0,2024-02-08T11:51:40.77
P03013134,Queen Sirikit Museum of Textiles,13.75194126,100.49071391,ATTRACTION,Attraction,,,,,,Na Phralan Road,Phraborom Maharatchawang,Phra Nakhon,Bangkok,10200,https://tatapi.tourismthailand.org/tatfs/Image/CustomPOI/Thumbnail/P03013134.jpeg,BANGKOK,N/A,0.0,2024-02-08T11:17:22.367
P03005834,Wat Indharawihan,13.76690784,100.50293902,ATTRACTION,Attraction,,,,,,,Bang Khun Phrom,Phra Nakhon,Bangkok,10200,https://tatapi.tourismthailand.org/tatfs/Image/CustomPOI/Thumbnail/P03005834.jpeg,BANGKOK,N/A,0.0,2024-02-07T14:57:46.187
P03013448,Wat Chana Songkram,13.76042627,100.49558877,ATTRACTION,Attraction,,,,,,77 Chakkaphong Road,Chana Songkhram,Phra Nakhon,Bangkok,10200,https://tatapi.tourismthailand.org/tatfs/Image/CustomPOI/Thumbnail/P03013448.jpeg,BANGKOK,N/A,0.0,2024-02-07T14:53:40.783
P03013224,Wat Thepthidaram,13.75338007,100.50422858,ATTRACTION,Attraction,,,,,,70 Mahachai Road,Samran Rat,Phra Nakhon,Bangkok,10200,https://tatapi.tourismthailand.org/tatfs/Image/CustomPOI/Thumbnail/P03013224.jpeg,BANGKOK,N/A,0.0,2024-02-07T14:48:52.037
P03006845,Phraprang Wat Arun Ratchawararam Ratchawora Mahawi,13.74379702,100.4889632,ATTRACTION,Attraction,,,,,,,Wat Arun,Bangkok Yai,Bangkok,10600,https://tatapi.tourismthailand.org/tatfs/Image/CustomPOI/Thumbnail/P03006845.jpeg,BANGKOK,N/A,0.0,2024-02-07T14:29:29.31
P03013219,Wat Ratchapradit Sathitmahasimaram,13.74943023,100.49580912,ATTRACTION,Attraction,,,,,,2 Saranrom Road,Phraborom Maharatchawang,Phra Nakhon,Bangkok,10200,https://tatapi.tourismthailand.org/tatfs/Image/CustomPOI/Thumbnail/P03013219.jpeg,BANGKOK,N/A,0.0,2024-02-07T09:26:19.517
P03025433,Wat Phra Si Rattana Satsadaram or Wat Phra Kaeo,13.75118146,100.49263026,ATTRACTION,Attraction,,,,,,,Phraborom Maharatchawang,Phra Nakhon,Bangkok,10200,https://tatapi.tourismthailand.org/tatfs/Image/CustomPOI/Thumbnail/P03025433.jpeg,BANGKOK,"['Wat Phra Kaeo', 'วัดพระแก้ว']",0.0,2024-02-07T09:12:54.777
P03011216,Pipit Banglamphu Museum,13.763631,100.496356,ATTRACTION,Attraction,Bang Lamphu Museum,3,Recreational activity and tourist attraction,2,SHA Plus,,Chana Songkhram,Phra Nakhon,Bangkok,10200,https://tatapi.tourismthailand.org/tatfs/Image/CustomPOI/Thumbnail/P03011216.jpeg,BANGKOK,N/A,0.0,2024-01-30T13:43:57.583
P03013213,National Museum,13.75832149,100.49116887,ATTRACTION,Attraction,,,,,,4 Na Phrathat Road,Phraborom Maharatchawang,Phra Nakhon,Bangkok,10200,https://tatapi.tourismthailand.org/tatfs/Image/CustomPOI/Thumbnail/P03013213.jpeg,BANGKOK,N/A,0.0,2024-01-30T13:32:52.133
P03013208,Bank of Thailand Museum,13.76848345,100.49965483,ATTRACTION,Attraction,,,,,,273 Sam Sen Road,Wat Sam Phraya,Phra Nakhon,Bangkok,10200,https://tatapi.tourismthailand.org/tatfs/IMAGE/CustomPOI/Thumbnail/P03013208_pic1.jpg,BANGKOK,N/A,0.0,2024-01-22T14:53:29.523
P03018084,Wat Mahathat Yuwarat Rangsarit Ratchawora Maha Wihan,13.75512723,100.49094206,ATTRACTION,Attraction,,,,,,3 Tha P้hrachan Road,Phraborom Maharatchawang,Phra Nakhon,Bangkok,10200,https://tatapi.tourismthailand.org/tatfs/Image/CustomPOI/Thumbnail/P03018084.jpeg,BANGKOK,['วัดมหาธาตุ'],0.0,2023-10-19T10:05:50.57
P03010105,Khaosan Garden,13.7591709,100.49800071,ATTRACTION,Attraction,,,,,,,Talat Yot,Phra Nakhon,Bangkok,10200,https://tatapi.tourismthailand.org/tatfs/Image/CustomPOI/Thumbnail/P03010105.jpeg,BANGKOK,N/A,0.0,2023-10-16T17:35:30.647
P03005350,Rama VIII Bridge,13.76897688,100.49713126,ATTRACTION,Attraction,,,,,,,Bang Yi Khan,Bang Phlat,Bangkok,10700,https://tatapi.tourismthailand.org/tatfs/Image/CustomPOI/Thumbnail/P03005350.jpeg,BANGKOK,N/A,0.0,2023-10-16T17:35:22.723
P03013442,Democracy Monument,13.75670305,100.5018443,ATTRACTION,Attraction,,,,,,Ratchadamnoen Klang Road,Bowon Niwet,Phra Nakhon,Bangkok,10200,https://tatapi.tourismthailand.org/tatfs/Image/CustomPOI/Thumbnail/P03013442.jpeg,BANGKOK,N/A,0.0,2023-10-16T17:35:04.183
P03013825,The King Rama I Monument,13.740823,100.498069,ATTRACTION,Attraction,,,,,,,Wang Burapha Phirom,Phra Nakhon,Bangkok,10200,https://tatapi.tourismthailand.org/tatfs/Image/CustomPOI/Thumbnail/P03013825.jpeg,BANGKOK,N/A,0.0,2023-10-16T17:34:53.097
P03018089,King Prajadhipok Museum,13.756123,100.50645411,ATTRACTION,Attraction,,,,,,,Ban Bat,Pom Prap Sattru Phai,Bangkok,10100,,BANGKOK,N/A,0.0,2023-10-16T17:34:29
P03013483,Sri Maha Mariamman Temple,13.7242381,100.52287012,ATTRACTION,Attraction,,,,,,2 Silom Road,Si Lom,Bang Rak,Bangkok,10500,https://tatapi.tourismthailand.org/tatfs/Image/CustomPOI/Thumbnail/P03013483.jpeg,BANGKOK,N/A,0.0,2023-10-16T17:33:53.513
P03013829,Wat Praram Kao Kanchanapisek,13.76000073,100.5943586,ATTRACTION,Attraction,,,,,,,Bang Kapi,Huai Khwang,Bangkok,10310,https://tatapi.tourismthailand.org/tatfs/Image/CustomPOI/Thumbnail/P03013829.jpeg,BANGKOK,N/A,0.0,2023-10-16T17:33:30.787
P03013125,Pak Khlong Talat Night Market,13.7416636,100.4951211,ATTRACTION,Attraction,,,,,,Chak Phet Road,Wang Burapha Phirom,Phra Nakhon,Bangkok,10200,https://tatapi.tourismthailand.org/tatfs/Image/CustomPOI/Thumbnail/P03013125.jpeg,BANGKOK,N/A,0.0,2023-10-16T17:33:22.38
P03013619,Kudi Chin Community,13.739365,100.492974,ATTRACTION,Attraction,,,,,,Soi Wat Kanlaya,Wat Kanlaya,Thon Buri,Bangkok,10600,https://tatapi.tourismthailand.org/tatfs/Image/CustomPOI/Thumbnail/P03013619.jpeg,BANGKOK,N/A,0.0,2023-10-16T17:33:17.567
P03013832,Sai Mai Road,13.80920995,100.5220272,ATTRACTION,Attraction,,,,,,,Bang Sue,Bang Sue,Bangkok,10800,https://tatapi.tourismthailand.org/tatfs/Image/CustomPOI/Thumbnail/P03013832.jpeg,BANGKOK,N/A,0.0,2023-10-16T17:32:59.983
P03014326,Ban Khrua Nuea community,13.749734,100.52762,ATTRACTION,Attraction,,,,,,,Thanon Phet Buri,Ratchathewi,Bangkok,10400,https://tatapi.tourismthailand.org/tatfs/Image/CustomPOI/Thumbnail/P03014326.jpeg,BANGKOK,N/A,0.0,2023-10-16T17:32:55.95
P03014731,Saphan Phut Night Market,13.74017554,100.49805304,ATTRACTION,Attraction,,,,,,Tri Phet Road,Wang Burapha Phirom,Phra Nakhon,Bangkok,10200,https://tatapi.tourismthailand.org/tatfs/Image/CustomPOI/Thumbnail/P03014731.jpeg,BANGKOK,N/A,0.0,2023-10-16T17:32:53.06
P03014723,Or To Ko Market,13.79723506,100.5497535,ATTRACTION,Attraction,,,,,,101 Phahon Yothin Road,Chatuchak,Chatuchak,Bangkok,10900,https://tatapi.tourismthailand.org/tatfs/Image/CustomPOI/Thumbnail/P03014723.jpeg,BANGKOK,N/A,0.0,2023-10-16T17:32:49.36
P03013206,Bangkok Butterfly Garden and Insectarium,13.80956777,100.55492129,ATTRACTION,Attraction,,,,,,Kamphaeng Phet Road,Chatuchak,Chatuchak,Bangkok,10900,https://tatapi.tourismthailand.org/tatfs/IMAGE/CustomPOI/Thumbnail/P03013206_pic1.jpg,BANGKOK,N/A,0.0,2023-10-16T17:32:29.637
P03013478,Buddhist Doctrine Practicing Place,13.72906915,100.56713792,ATTRACTION,Attraction,,,,,,616 Sukhumvit Road,Khlong Tan,Khlong Toei,Bangkok,10110,https://tatapi.tourismthailand.org/tatfs/Image/CustomPOI/Thumbnail/P03013478.jpeg,BANGKOK,N/A,0.0,2023-10-16T17:32:26.06
P03013488,"Snake Farm, Queen Saovabha Memorial Institute",13.73286875,100.53283565,ATTRACTION,Attraction,,,,,,1871 Rama 4 Road,Pathum Wan,Pathum Wan,Bangkok,10330,https://tatapi.tourismthailand.org/tatfs/Image/CustomPOI/Thumbnail/P03013488.jpeg,BANGKOK,N/A,0.0,2023-10-16T17:32:22.95
P03013836,TK Park,13.746951,100.538369,ATTRACTION,Attraction,,,,,,,Pathum Wan,Pathum Wan,Bangkok,10330,https://tatapi.tourismthailand.org/tatfs/Image/CustomPOI/Thumbnail/P03013836.jpeg,BANGKOK,N/A,0.0,2023-10-16T17:32:19.85
P03013212,National Gallery Museum,13.7591518,100.4940789,ATTRACTION,Attraction,,,,,,4 Chao Fa Road,Chana Songkhram,Phra Nakhon,Bangkok,10200,https://tatapi.tourismthailand.org/tatfs/Image/CustomPOI/Thumbnail/P03013212.jpeg,BANGKOK,N/A,0.0,2023-10-16T17:31:54.02
P03007473,Bangkok Art and Culture Centre,13.74675954,100.53032629,ATTRACTION,Attraction,Bangkok Art and Culture Centre,9,"Activity/meeting, Theater/entertainment",1,SHA,Bangkok Art and Culture Centre 939 Rama 1 Road,Wang Mai,Pathum Wan,Bangkok,10330,https://tatapi.tourismthailand.org/tatfs/Image/CustomPOI/Thumbnail/P03007473.jpeg,BANGKOK,N/A,0.0,2023-10-16T17:31:50.77
P03013453,Sala Chalermkrung,13.74678783,100.50009485,ATTRACTION,Attraction,,,,,,66 Charoen Krung Road,Wang Burapha Phirom,Phra Nakhon,Bangkok,10200,https://tatapi.tourismthailand.org/tatfs/IMAGE/CustomPOI/Thumbnail/P03013453_pic1.jpg,BANGKOK,N/A,0.0,2023-10-16T17:31:23.257
P03013492,Supachalasai Stadium,13.74547546,100.52569491,ATTRACTION,Attraction,,,,,,154 Rama 4 Road,Wang Mai,Pathum Wan,Bangkok,10330,https://tatapi.tourismthailand.org/tatfs/Image/CustomPOI/Thumbnail/P03013492.jpeg,BANGKOK,N/A,0.0,2023-10-16T17:31:20.29
P03013482,Santiphap Park,13.76170288,100.54091609,ATTRACTION,Attraction,,,,,,Rang Nam Road,Thanon Phaya Thai,Ratchathewi,Bangkok,10400,,BANGKOK,N/A,0.0,2023-10-16T17:30:59.833
P03013438,M Theatre,13.74380478,100.58754036,ATTRACTION,Attraction,,,,,,2884/2 New Phetchaburi Road,Bang Kapi,Huai Khwang,Bangkok,10310,https://tatapi.tourismthailand.org/tatfs/Image/CustomPOI/Thumbnail/P03013438.jpeg,BANGKOK,N/A,0.0,2023-10-16T17:30:52.61
P03013452,Thai National Theatre,13.75874187,100.49221847,ATTRACTION,Attraction,,,,,,2 Rachini Road,Phraborom Maharatchawang,Phra Nakhon,Bangkok,10200,https://tatapi.tourismthailand.org/tatfs/Image/CustomPOI/Thumbnail/P03013452.jpeg,BANGKOK,N/A,0.0,2023-10-16T17:30:32.007
P03013459,Thailand Cultural Centre,13.76644429,100.5739845,ATTRACTION,Attraction,,,,,,14 Ratchadaphisek Road,Huai Khwang,Huai Khwang,Bangkok,10310,https://tatapi.tourismthailand.org/tatfs/Image/CustomPOI/Thumbnail/P03013459.jpeg,BANGKOK,N/A,0.0,2023-10-16T17:30:24.49
P03013830,Muangthai Rachadalai Theatre,13.766391,100.5694244,ATTRACTION,Attraction,,,,,,,Din Daeng,Din Daeng,Bangkok,10400,https://tatapi.tourismthailand.org/tatfs/Image/CustomPOI/Thumbnail/P03013830.jpeg,BANGKOK,N/A,0.0,2023-10-16T17:30:03.89
P03013454,Romaneenart Park,13.74870687,100.5025319,ATTRACTION,Attraction,,,,,,Mahachai Road,Samran Rat,Phra Nakhon,Bangkok,10200,https://tatapi.tourismthailand.org/tatfs/Image/CustomPOI/Thumbnail/P03013454.jpeg,BANGKOK,N/A,0.0,2023-10-16T17:29:59.733
P01000858,Talat Khlong Suan Roi Pi (100-year-old Garden-Canal Market),13.6623941,100.95376501,ATTRACTION,Attraction,,,,,,Tambon Khlong Suan,Khlong Suan,Bang bo,Samut Prakan,10560,https://tatapi.tourismthailand.org/tatfs/Image/CustomPOI/Thumbnail/P01000858.jpeg,SAMUT PRAKAN,N/A,0.0,2023-11-06T10:47:07.3
P01000444,Bang Namphueng Floating Market,13.68092,100.574052,ATTRACTION,Attraction,,,,,,,Bang Nam Phueng,Phra Pradaeng,Samut Prakan,10130,https://tatapi.tourismthailand.org/tatfs/Image/CustomPOI/Thumbnail/P01000444.jpeg,SAMUT PRAKAN,N/A,0.0,2023-11-06T10:45:05.723
P03005216,Wat Bang Phli Yai Nai,13.605464,100.711818,ATTRACTION,Attraction,Wat Bang Phli Yai Nai,3,Recreational activity and tourist attraction,1,SHA,,Bang Phli Yai,Bang Phli,Samut Prakan,10540,https://tatapi.tourismthailand.org/tatfs/Image/CustomPOI/Thumbnail/P03005216.jpeg,SAMUT PRAKAN,N/A,0.0,2023-10-24T14:36:14.223
P03018339,HarborLand Mega Bangna,13.64660499,100.6802925,ATTRACTION,Attraction,HarborLand Mega Bangna,3,Recreational activity and tourist attraction,1,SHA,"Mega Bangna Shopping Center 39 Mu 6 Bangna-Trad Rd., Km. 8",Bang Kaeo,Bang Phli,Samut Prakan,10540,https://tatapi.tourismthailand.org/tatfs/Image/custompoi/Thumbnail/P03018339.jpg,SAMUT PRAKAN,N/A,0.0,2023-10-16T17:22:46.04
P03013499,Phra Samut Chedi,13.60033533,100.5868132,ATTRACTION,Attraction,,,,,,Suk Sawat Road,Pak Khlong Bang Pla Kot,Phra Samut Chedi,Samut Prakan,10290,https://tatapi.tourismthailand.org/tatfs/Image/CustomPOI/Thumbnail/P03013499.jpeg,SAMUT PRAKAN,N/A,0.0,2023-10-16T13:33:56.65
P03018465,Wat Hua Koo,13.70630599,100.787559,ATTRACTION,Attraction,Wat Hua Koo,3,Recreational activity and tourist attraction,1,SHA,36 Mu 1,Sisa Chorakhe Noi,Bang Sao Thong,Samut Prakan,10570,https://tatapi.tourismthailand.org/tatfs/Image/custompoi/Thumbnail/P03018465.jpeg,SAMUT PRAKAN,N/A,0.0,2023-10-16T13:19:59.427
P03015179,Bang Phli Cultural Center,13.605833,100.706111,ATTRACTION,Attraction,,,,,,154 Mu 8,Bang Phli Yai,Bang Phli,Samut Prakan,10540,,SAMUT PRAKAN,N/A,0.0,2023-10-16T13:19:50.2
P03013842,Bueng Tako,13.624523,100.710244,ATTRACTION,Attraction,,,,,,157 Mu 12 Soi Suksawai,Bang Phli Yai,Bang Phli,Samut Prakan,10540,https://tatapi.tourismthailand.org/tatfs/Image/CustomPOI/Thumbnail/P03013842.jpeg,SAMUT PRAKAN,N/A,0.0,2023-10-16T13:19:34.913
P03013841,Wat Mongkhon Khothawat,13.513359,100.820865,ATTRACTION,Attraction,,,,,,,Khlong Dan,Bang bo,Samut Prakan,10550,https://tatapi.tourismthailand.org/tatfs/Image/CustomPOI/Thumbnail/P03013841.jpeg,SAMUT PRAKAN,N/A,0.0,2023-10-16T13:19:30.527
P03013838,Wat Bang Phli Yai Klang,13.607714,100.704619,ATTRACTION,Attraction,Wat Bang Phli Yai Klang,3,Recreational activity and tourist attraction,1,SHA,,Bang Phli Yai,Bang Phli,Samut Prakan,10540,https://tatapi.tourismthailand.org/tatfs/Image/custompoi/Thumbnail/P03013838.jpeg,SAMUT PRAKAN,N/A,0.0,2023-10-16T13:19:27.177
P03013498,Wat Songtham Worawihan,13.66205919,100.53618036,ATTRACTION,Attraction,,,,,,Phetchahueng Road,Song Khanong,Phra Pradaeng,Samut Prakan,10130,https://tatapi.tourismthailand.org/tatfs/Image/CustomPOI/Thumbnail/P03013498.jpeg,SAMUT PRAKAN,N/A,0.0,2023-10-16T13:19:23.757
P03025233,Khung Bang Kachao,13.695971,100.566192,ATTRACTION,Attraction,,,,,,,Bang Kachao,Phra Pradaeng,Samut Prakan,10130,https://tatapi.tourismthailand.org/tatfs/image/CustomPOI/Thumbnail/P03025233.jpeg,SAMUT PRAKAN,N/A,0.0,2023-10-15T17:56:19.703
P03025232,Lat Pho Park,13.665345,100.537545,ATTRACTION,Attraction,,,,,,,Song Khanong,Phra Pradaeng,Samut Prakan,10130,https://tatapi.tourismthailand.org/tatfs/image/CustomPOI/Thumbnail/P03025232.jpeg,SAMUT PRAKAN,N/A,0.0,2023-10-15T17:56:15.68
P03018129,The Old Bang Phli Floating Market,13.60344471,100.71087953,ATTRACTION,Attraction,,,,,,,Bang Phli Yai,Bang Phli,Samut Prakan,10540,https://tatapi.tourismthailand.org/tatfs/Image/CustomPOI/Thumbnail/P03018129.jpeg,SAMUT PRAKAN,['ตลาดน้ำโบราณบางพลี'],0.0,2023-10-15T16:19:09.373
P03018456,Wat Phra Samut Chedi,13.60037543,100.5849334,ATTRACTION,Attraction,Wat Phra Samut Chedi,3,Recreational activity and tourist attraction,1,SHA,114 Mu 3,Pak Khlong Bang Pla Kot,Phra Samut Chedi,Samut Prakan,10290,https://tatapi.tourismthailand.org/tatfs/Image/CustomPOI/Thumbnail/P03018456.jpeg,SAMUT PRAKAN,N/A,0.0,2023-10-15T16:18:48.037
P03015197,Wat Sa Khla (Sa Khla Temple),13.54531056,100.50038312,ATTRACTION,Attraction,,,,,,,Na Kluea,Phra Samut Chedi,Samut Prakan,10290,https://tatapi.tourismthailand.org/tatfs/Image/CustomPOI/Thumbnail/P03015197.jpeg,SAMUT PRAKAN,N/A,0.0,2023-10-15T16:18:39.7
P03018472,Phi Suea Samut Fortress,13.59511945,100.58742767,ATTRACTION,Attraction,Phi Suea Samut Fortress,3,Recreational activity and tourist attraction,,,,Pak Khlong Bang Pla Kot,Phra Samut Chedi,Samut Prakan,10290,https://tatapi.tourismthailand.org/tatfs/Image/CustomPOI/Thumbnail/P03018472.jpeg,SAMUT PRAKAN,N/A,0.0,2023-10-15T16:18:10.92
P03018341,Tourism Club Support by Bang Sub-District Community,13.691377,100.57896,ATTRACTION,Attraction,Tourism Club Support by Bang Sub-District Community,3,Recreational activity and tourist attraction,1,SHA,10 Mu 10 Soi Phetcha Hueng 52,Bang Ko Bua,Phra Pradaeng,Samut Prakan,10130,https://tatapi.tourismthailand.org/tatfs/Image/CustomPOI/Thumbnail/P03018341.jpeg,SAMUT PRAKAN,N/A,0.0,2023-10-15T16:18:07.297
P03013413,Bang Pu Recreation Center,13.51746516,100.65517309,ATTRACTION,Attraction,,,,,,"164 Mu 2, Sukhumvit Road",Bang Pu Mai,Mueang Samut Prakan,Samut Prakan,10280,https://tatapi.tourismthailand.org/tatfs/Image/CustomPOI/Thumbnail/P03013413.jpeg,SAMUT PRAKAN,N/A,0.0,2023-10-15T16:17:12.333
P03018466,Thamma Katanyu Foundation,13.53897043,100.62811464,ATTRACTION,Attraction,Thamma Katanyu Foundation,3,Recreational activity and tourist attraction,,,5 Mu 7,Bang Pu Mai,Mueang Samut Prakan,Samut Prakan,10280,https://tatapi.tourismthailand.org/tatfs/Image/CustomPOI/Thumbnail/P03018466.jpeg,SAMUT PRAKAN,N/A,0.0,2023-10-15T16:17:08.297
P03006201,Ancient City,13.5406814,100.62388237,ATTRACTION,Attraction,Ancient City Group,3,Recreational activity and tourist attraction,2,SHA Plus,963 Sukhumvit Road,Bang Pu Mai,Mueang Samut Prakan,Samut Prakan,10280,https://tatapi.tourismthailand.org/tatfs/Image/CustomPOI/Thumbnail/P03006201.jpeg,SAMUT PRAKAN,['เมืองโบราณ'],0.0,2023-10-15T16:16:47.05
P03013839,Wat Asokaram,13.54738822,100.60819118,ATTRACTION,Attraction,,,,,,,Thai Ban,Mueang Samut Prakan,Samut Prakan,10280,https://tatapi.tourismthailand.org/tatfs/Image/CustomPOI/Thumbnail/P03013839.jpeg,SAMUT PRAKAN,N/A,0.0,2023-10-15T16:16:33.823
P03001345,Erawan Museum,13.62847307,100.58913384,ATTRACTION,Attraction,Erawan Museum,3,Recreational activity and tourist attraction,2,SHA Plus,"99/9 Mu 1, Sukhumvit Sai Kao Road",Bang Mueang Mai,Mueang Samut Prakan,Samut Prakan,10270,https://tatapi.tourismthailand.org/tatfs/Image/custompoi/Thumbnail/P03001345.jpg,SAMUT PRAKAN,N/A,0.0,2023-10-15T16:16:04.75
P03018130,Hua Chiao Chaloem Phra Kiat Museum,13.61310678,100.75958842,ATTRACTION,Attraction,,,,,,18/18 ,Bang Chalong,Bang Phli,Samut Prakan,10540,,SAMUT PRAKAN,N/A,0.0,2023-10-12T10:56:13.64
P03013497,Wat Protket Chettharam,13.6676975,100.5283998,ATTRACTION,Attraction,Wat Prodaket Chettharam,3,Recreational activity and tourist attraction,1,SHA,45/11 Songtham Road,Song Khanong,Phra Pradaeng,Samut Prakan,10130,https://tatapi.tourismthailand.org/tatfs/Image/custompoi/Thumbnail/P03013497.jpeg,SAMUT PRAKAN,N/A,0.0,2023-10-12T10:33:56.107
P03015151,Wat Phaichayonphonsep Ratchaworawihan,13.66740575,100.52671,ATTRACTION,Attraction,Wat Paichayonponsep Ratchaworawihan,3,Recreational activity and tourist attraction,1,SHA,,Bang Phueng,Phra Pradaeng,Samut Prakan,10130,https://tatapi.tourismthailand.org/tatfs/Image/custompoi/Thumbnail/P03015151.jpeg,SAMUT PRAKAN,N/A,0.0,2023-10-12T09:48:39.95
P03015192,Wat Pa Ket,13.658333,100.533889,ATTRACTION,Attraction,,,,,,,Song Khanong,Phra Pradaeng,Samut Prakan,10130,https://tatapi.tourismthailand.org/tatfs/Image/CustomPOI/Thumbnail/P03015192.jpeg,SAMUT PRAKAN,N/A,0.0,2021-05-04T12:54:01.447
P03008932,Pla Kat Thai Museum,13.69988396,100.56270039,ATTRACTION,Attraction,,,,,,,Bang Kachao,Phra Pradaeng,Samut Prakan,10130,https://tatapi.tourismthailand.org/tatfs/Image/CustomPOI/Thumbnail/P03008932.jpeg,SAMUT PRAKAN,N/A,0.0,2021-02-04T16:06:35.92
P03008063,Naval Museum,13.60962486,100.59596809,ATTRACTION,Attraction,,,,,,,Pak Nam,Mueang Samut Prakan,Samut Prakan,10270,https://tatapi.tourismthailand.org/tatfs/Image/CustomPOI/Thumbnail/P03008063.jpeg,SAMUT PRAKAN,N/A,0.0,2021-02-04T16:05:25.51
P03015198,The Herbal Jass Stick Community,13.67887395,100.5801371,ATTRACTION,Attraction,,,,,,,Bang Nam Phueng,Phra Pradaeng,Samut Prakan,10130,,SAMUT PRAKAN,N/A,0.0,2020-09-11T14:25:39.687
P03015157,Wat Phichai Songkhram,13.59564031,100.5981803,ATTRACTION,Attraction,,,,,,29 Prakhon Chai Road,Pak Nam,Mueang Samut Prakan,Samut Prakan,10270,https://tatapi.tourismthailand.org/tatfs/Image/CustomPOI/Thumbnail/P03015157.jpeg,SAMUT PRAKAN,N/A,0.0,2020-07-09T11:15:40.15
P03013843,Phra Suea Mueang Shrine,13.658333,100.533889,ATTRACTION,Attraction,,,,,,,Talat,Phra Pradaeng,Samut Prakan,10130,https://tatapi.tourismthailand.org/tatfs/Image/CustomPOI/Thumbnail/P03013843.jpeg,SAMUT PRAKAN,N/A,0.0,2020-07-09T10:54:51.637
P03013837,Si Nakhon Khuean Khan Park and Botanical Garden,13.69573348,100.5638149,ATTRACTION,Attraction,,,,,,,Bang Kachao,Phra Pradaeng,Samut Prakan,10130,https://tatapi.tourismthailand.org/tatfs/Image/CustomPOI/Thumbnail/P03013837.jpeg,SAMUT PRAKAN,N/A,0.0,2020-07-09T09:10:57.65
P03013496,Phlaeng Faifa Fort,13.6573422,100.5327137,ATTRACTION,Attraction,,,,,,183 Phraya Phayap Phiriyakit Road,Talat,Phra Pradaeng,Samut Prakan,10130,https://tatapi.tourismthailand.org/tatfs/Image/CustomPOI/Thumbnail/P03013496.jpeg,SAMUT PRAKAN,N/A,0.0,2020-07-08T15:48:20.517
P03009127,Fort Chulachomklao,13.53875686,100.58309631,ATTRACTION,Attraction,Phra Chulachomklao Fort,3,Recreational activity and tourist attraction,1,SHA,,Laem Fa Pha,Phra Samut Chedi,Samut Prakan,10290,https://tatapi.tourismthailand.org/tatfs/Image/custompoi/Thumbnail/P03009127.jpeg,SAMUT PRAKAN,N/A,0.0,2020-07-08T13:25:41.71
P01002808,Mega Bangna,13.647943,100.681161,ATTRACTION,Attraction,,,,,,,Bang Kaeo,Bang Phli,Samut Prakan,10540,https://tatapi.tourismthailand.org/tatfs/Image/CustomPOI/Thumbnail/P01002808.jpeg,SAMUT PRAKAN,N/A,0.0,2020-07-08T10:10:14.96
P03013503,Wat Prasat (Prasat Temple),13.83917923,100.45184308,ATTRACTION,Attraction,,,,,,18 Bang Kruai-Sai Noi Road,Bang Krang,Mueang Nonthaburi,Nonthaburi,11000,https://tatapi.tourismthailand.org/tatfs/Image/CustomPOI/Thumbnail/P03013503.jpeg,NONTHABURI,N/A,0.0,2024-05-24T16:39:03.56
P03013505,Wat Baang Aoi Chaang,13.81824293,100.47191017,ATTRACTION,Attraction,,,,,,"79 Moo 2, Bang Kruai-Sai Noi Road",Bang Si Thong,Bang Kruai,Nonthaburi,11130,https://tatapi.tourismthailand.org/tatfs/IMAGE/CustomPOI/Thumbnail/P03013505_pic1.jpg,NONTHABURI,N/A,0.0,2023-10-15T14:09:56.96
P03013501,Wat Khemaphitaram,13.82182736,100.50343301,ATTRACTION,Attraction,,,,,,"74 Moo 8, Phibun Songkhram Road",Suan Yai,Mueang Nonthaburi,Nonthaburi,11000,https://tatapi.tourismthailand.org/tatfs/Image/CustomPOI/Thumbnail/P03013501.jpeg,NONTHABURI,"['นนทบุรี', 'วัดเขมาภิรตารามราชวรวิหาร ']",0.0,2023-10-15T14:09:31.52
P03013863,Wat Ku,13.93161376,100.5055752,ATTRACTION,Attraction,,,,,,,Bang Phut,Pak Kret,Nonthaburi,11120,https://tatapi.tourismthailand.org/tatfs/Image/CustomPOI/Thumbnail/P03013863.jpeg,NONTHABURI,"['นนทบุรี', 'วัดกู้', 'วัดพระนางเรือล่ม ']",0.0,2023-10-15T14:09:19.043
P03013854,Wat Chalor,13.80600995,100.4765902,ATTRACTION,Attraction,,,,,,,Wat Chalo,Bang Kruai,Nonthaburi,11130,https://tatapi.tourismthailand.org/tatfs/Image/CustomPOI/Thumbnail/P03013854.jpeg,NONTHABURI,"['นนทบุรี', 'วัดชลอ ']",0.0,2023-10-15T14:08:56.047
P03013510,Wat Poramaiyakawas,13.91266372,100.49005302,ATTRACTION,Attraction,,,,,,"51 Moo 7, Chaeng Watthana Road",Ko Kret,Pak Kret,Nonthaburi,11120,https://tatapi.tourismthailand.org/tatfs/Image/CustomPOI/Thumbnail/P03013510.jpeg,NONTHABURI,N/A,0.0,2023-10-15T14:08:52.56
P03018284,IMPACT Speed Park,13.91857297,100.5430909,ATTRACTION,Attraction,IMPACT Speed Park,3,Recreational activity and tourist attraction,2,SHA Plus,121 M.6,Ban Mai,Pak Kret,Nonthaburi,11120,https://tatapi.tourismthailand.org/tatfs/Image/custompoi/Thumbnail/P03018284.jpg,NONTHABURI,"['นนทบุรี', 'อิมแพ็ค สปีด พาร์ค ']",0.0,2023-10-15T14:08:49.31
P03018824 ,Ban Bang Muang Bangyai CBT,13.827632,100.422681,ATTRACTION,Attraction,Ban Bang Muang Bangyai CBT,3,Recreational activity and tourist attraction,1,SHA,32/4 Moo 8,Bang Muang,Bang Yai,Nonthaburi,11140,https://tatapi.tourismthailand.org/tatfs/Image/custompoi/Thumbnail/P03018824 .jpg,NONTHABURI,"['ชุมชนท่องเที่ยวบางใหญ่-บ้านบางม่วง ', 'นนทบุรี']",0.0,2023-10-15T14:08:33.053
P03006271,Wat Chaloem Phra Kiat Worawiharn,13.84832644,100.48457992,ATTRACTION,Attraction,,,,,,,Bang Si Mueang,Mueang Nonthaburi,Nonthaburi,11000,https://tatapi.tourismthailand.org/tatfs/Image/CustomPOI/Thumbnail/P03006271.jpeg,NONTHABURI,"['นนทบุรี', 'วัดเฉลิมพระเกียรติวรวิหาร ']",0.0,2023-10-15T14:08:21.16
P03005979,Ko Kret,13.91325695,100.48584132,ATTRACTION,Attraction,,,,,,,Ko Kret,Pak Kret,Nonthaburi,11120,https://tatapi.tourismthailand.org/tatfs/Image/CustomPOI/Thumbnail/P03005979.jpeg,NONTHABURI,"['Ko Kret', 'Nonthaburi', 'เกาะเกร็ด ', 'นนทบุรี']",0.0,2023-10-15T14:08:16.86
P03013507,Wat Boromracha Kanchanapisek Anusorn,13.91315319,100.42136974,ATTRACTION,Attraction,,,,,,79 Moo 4,Sano Loi,Bang Bua Thong,Nonthaburi,11110,https://tatapi.tourismthailand.org/tatfs/Image/CustomPOI/Thumbnail/P03013507.jpeg,NONTHABURI,"['นนทบุรี', 'วัดบรมราชากาญจนาภิเษกอนุสรณ์ ', 'วัดเล่งเน่ยยี่ 2 ']",0.0,2023-10-15T14:07:49.11
P03013508,Sai Noi Floating Market,13.9788795,100.3112555,ATTRACTION,Attraction,,,,,,,Sai Noi,Sai Noi,Nonthaburi,11150,https://tatapi.tourismthailand.org/tatfs/IMAGE/CustomPOI/Thumbnail/P03013508_pic1.jpg,NONTHABURI,"['ตลาดน้ำไทรน้อย ', 'นนทบุรี', 'วัดไทรใหญ่ ']",0.0,2023-10-15T14:07:45.703
P03018356,Tooney Toy Museum,13.93464651,100.5616295,ATTRACTION,Attraction,,,,,,"69/275 Moo 1, Soi Srisamarn 8, Srisamarn Rd.",Ban Mai,Pak Kret,Nonthaburi,11120,,NONTHABURI,"['ตูนนี่ ทอย มิวเซียม พิพิธภัณฑ์ของเล่นสะสม ', 'นนทบุรี']",0.0,2023-10-10T16:06:33.763
P03016506,Ko Kred Orchard,13.911429,100.47619,ATTRACTION,Attraction,,,,,,"Moo 1,2,3,4,5",Ko Kret,Pak Kret,Nonthaburi,11120,,NONTHABURI,N/A,0.0,2022-02-28T10:59:28.62
P03016265,Montri Tramote’s house or Ban Som Song Saeng,13.85016326,100.5137858,ATTRACTION,Attraction,,,,,,,Talat Khwan,Mueang Nonthaburi,Nonthaburi,11000,,NONTHABURI,N/A,0.0,2020-09-07T12:39:20.547
P03013853,Wat Krajom Thong,13.80196071,100.4827626,ATTRACTION,Attraction,,,,,,,Wat Chalo,Bang Kruai,Nonthaburi,11130,,NONTHABURI,N/A,0.0,2020-03-17T14:52:43.47
P03013858,Wat Phikun Ngoen,13.85023806,100.4225996,ATTRACTION,Attraction,,,,,,,Bang Muang,Bang Yai,Nonthaburi,11140,,NONTHABURI,N/A,0.0,2020-03-17T14:51:50.85
P03013864,Wat Rat Prakhong Tham,13.85414188,100.4232935,ATTRACTION,Attraction,,,,,,,Sao Thong Hin,Bang Yai,Nonthaburi,11140,,NONTHABURI,N/A,0.0,2020-03-17T14:39:04.32
P03006766,Wat Suan Kaeo,13.863264,100.441156,ATTRACTION,Attraction,,,,,,Moo 1,Bang Len,Bang Yai,Nonthaburi,11140,,NONTHABURI,N/A,0.0,2020-03-17T14:37:26.933
P03001391,Wat Chonprathan Rangsarit,13.90071057,100.50725678,ATTRACTION,Attraction,,,,,,,Bang Talat,Pak Kret,Nonthaburi,11120,https://tatapi.tourismthailand.org/tatfs/Image/CustomPOI/Thumbnail/P03001391.jpeg,NONTHABURI,N/A,0.0,2020-03-09T16:13:34.753
P03016494,Chao Pho Chui Shrine,13.981322,100.311965,ATTRACTION,Attraction,,,,,,Soi San Chao,Khlong Khwang,Sai Noi,Nonthaburi,11150,https://tatapi.tourismthailand.org/tatfs/Image/CustomPOI/Thumbnail/P03016494.jpeg,NONTHABURI,N/A,0.0,2020-03-06T11:12:01.77
P03013512,Suan Kret Buddha,13.90522666,100.48801392,ATTRACTION,Attraction,,,,,,"59/4 Moo 2, Ko Kret Road",Ko Kret,Pak Kret,Nonthaburi,11120,https://tatapi.tourismthailand.org/tatfs/IMAGE/CustomPOI/Thumbnail/P03013512_pic1.jpg,NONTHABURI,N/A,0.0,2020-03-06T11:03:23.41
P03016499,Impact Muang Thong Thani,13.91306626,100.5489733,ATTRACTION,Attraction,,,,,,"47/569-576 Moo 3, Popular 3 Road",Ban Mai,Pak Kret,Nonthaburi,11120,https://tatapi.tourismthailand.org/tatfs/Image/CustomPOI/Thumbnail/P03016499.jpeg,NONTHABURI,N/A,0.0,2020-03-02T16:44:02.447
P03016493,Wat Sai Noi,13.95689858,100.34814709,ATTRACTION,Attraction,,,,,,"40 Moo 1 Ban Sai Noi, Bang Kruai-Sai Noi Road",Sai Noi,Sai Noi,Nonthaburi,11150,,NONTHABURI,N/A,0.0,2020-03-02T16:38:53.783
P03016191,Wat Seni Wong,13.91915528,100.30140942,ATTRACTION,Attraction,,,,,,Moo 9 Ban Plai Khlong Masong,Nong Phrao Ngai,Sai Noi,Nonthaburi,11150,https://tatapi.tourismthailand.org/tatfs/Image/CustomPOI/Thumbnail/P03016191.jpeg,NONTHABURI,N/A,0.0,2020-03-02T16:33:51.25
P03016492,Suan Chuan Chom Preecha,13.92587632,100.4414085,ATTRACTION,Attraction,,,,,,,Bang Phlap,Pak Kret,Nonthaburi,11120,,NONTHABURI,N/A,0.0,2020-03-02T16:30:05.88
P01000640,Wat Saeng Siritham Floating Market,13.902638,100.47206,ATTRACTION,Attraction,,,,,,,Tha it,Pak Kret,Nonthaburi,11120,https://tatapi.tourismthailand.org/tatfs/image/CustomPOI/Thumbnail/P01000640.jpg,NONTHABURI,N/A,0.0,2020-03-02T16:27:38.953
P03016488,Orchid Farmers Support Group,13.937997,100.318413,ATTRACTION,Attraction,,,,,,25/4 Moo 5,Thawi Watthana,Sai Noi,Nonthaburi,11150,,NONTHABURI,N/A,0.0,2020-03-02T16:24:44.363
P03016487,Wat Intra,13.85325967,100.41981543,ATTRACTION,Attraction,,,,,,48 Moo 2,Sao Thong Hin,Bang Yai,Nonthaburi,11140,,NONTHABURI,N/A,0.0,2020-03-02T16:21:49.567
P03016484,Wat Phra Ngern,13.8314023,100.4000093,ATTRACTION,Attraction,,,,,,23 Moo 8,Bang Muang,Bang Yai,Nonthaburi,11140,,NONTHABURI,N/A,0.0,2020-03-02T16:19:02.22
P03016479,Wat Sakae,13.853267,100.429956,ATTRACTION,Attraction,,,,,,,Bang Len,Bang Yai,Nonthaburi,11140,,NONTHABURI,N/A,0.0,2020-03-02T16:16:06.47
P03006278,Wat Yukantarawas,13.837064,100.429889,ATTRACTION,Attraction,,,,,,22 Moo 7 Ban Suan Chao,Bang Len,Bang Yai,Nonthaburi,11140,,NONTHABURI,N/A,0.0,2020-03-02T16:13:56.73
P03016477,Wat Tha Bantherngtham,13.84755984,100.3938339,ATTRACTION,Attraction,,,,,,1 Moo 1 Khlong Bang Sano,Bang Yai,Bang Yai,Nonthaburi,11140,,NONTHABURI,N/A,0.0,2020-03-02T16:10:45.607
P03016476,Wat Khong Kha,13.85014,100.413006,ATTRACTION,Attraction,,,,,,"38 Moo 3, Kanchanaphisek Road",Bang Muang,Bang Yai,Nonthaburi,11140,https://tatapi.tourismthailand.org/tatfs/Image/CustomPOI/Thumbnail/P03016476.jpeg,NONTHABURI,N/A,0.0,2020-03-02T16:07:55.88
P03002774,Wat Bang Krai Nai,13.819511,100.439474,ATTRACTION,Attraction,,,,,,,Bang Khun Kong,Bang Kruai,Nonthaburi,11130,,NONTHABURI,N/A,0.0,2020-03-02T16:04:42.073
P03016520,Wat Khlong Khwang,14.02454968,100.3309433,ATTRACTION,Attraction,,,,,,10 Moo 6,Khlong Khwang,Sai Noi,Nonthaburi,11150,,NONTHABURI,N/A,0.0,2020-03-02T16:03:06.76
P03013848,Wat Sak Noi,13.81160281,100.4705451,ATTRACTION,Attraction,,,,,,20 Moo 9,Wat Chalo,Bang Kruai,Nonthaburi,11130,https://tatapi.tourismthailand.org/tatfs/Image/CustomPOI/Thumbnail/P03013848.jpeg,NONTHABURI,N/A,0.0,2020-03-02T16:02:06.793
P03016159,Wat Phleng,13.86559095,100.46612895,ATTRACTION,Attraction,,,,,,,Sai ma,Mueang Nonthaburi,Nonthaburi,11000,https://tatapi.tourismthailand.org/tatfs/Image/CustomPOI/Thumbnail/P03016159.jpeg,NONTHABURI,N/A,0.0,2020-03-02T15:59:26.87
P03013847,Kanchanaphisek Park (Utthayan Chalerm Phrakiat),13.84910488,100.4807836,ATTRACTION,Attraction,,,,,,Soi Chalerm Phrakiat 13,Bang Si Mueang,Mueang Nonthaburi,Nonthaburi,11000,https://tatapi.tourismthailand.org/tatfs/Image/CustomPOI/Thumbnail/P03013847.jpeg,NONTHABURI,N/A,0.0,2020-03-02T15:54:10.253
P03016272,Wat Bang Khwang,13.8416537,100.4933664,ATTRACTION,Attraction,,,,,,"238 Moo 4, Pracharat Road",Suan Yai,Mueang Nonthaburi,Nonthaburi,11000,,NONTHABURI,N/A,0.0,2020-03-02T15:49:45.023
P03007978,Wat Tamnak Tai,13.886391,100.490385,ATTRACTION,Attraction,,,,,,Moo 4,Tha Sai,Mueang Nonthaburi,Nonthaburi,11000,https://tatapi.tourismthailand.org/tatfs/Image/CustomPOI/Thumbnail/P03007978.jpeg,NONTHABURI,N/A,0.0,2020-03-02T15:47:21.173
P03003951,Wat Sai Ma Nuea,13.86322874,100.47527425,ATTRACTION,Attraction,,,,,,Moo 4,Sai ma,Mueang Nonthaburi,Nonthaburi,11000,https://tatapi.tourismthailand.org/tatfs/image/CustomPOI/Thumbnail/P03003951.jpg,NONTHABURI,N/A,0.0,2020-03-02T15:45:54.223
P03016262,The Prathom-Nonthaburi Palace,13.856684,100.52801,ATTRACTION,Attraction,,,,,,45/5 Soi Akkhani (Ngam Wongwan 2),Bang Khen,Mueang Nonthaburi,Nonthaburi,11000,,NONTHABURI,N/A,0.0,2020-03-02T15:40:24.16
P03016166,The Museum of Anthropology,13.842015,100.492734,ATTRACTION,Attraction,,,,,,,Suan Yai,Mueang Nonthaburi,Nonthaburi,11000,,NONTHABURI,N/A,0.0,2020-03-02T15:34:23.267
P03009122,Museum and the Thai Traditional Medical Training C,13.84804008,100.52930802,ATTRACTION,Attraction,,,,,,,Bang Khen,Mueang Nonthaburi,Nonthaburi,11000,https://tatapi.tourismthailand.org/tatfs/image/CustomPOI/Thumbnail/P03009122.jpg,NONTHABURI,N/A,0.0,2020-03-02T15:29:38.807
P03013385,Wat Amphawan,13.84262255,100.42247505,ATTRACTION,Attraction,,,,,,1,Bang Muang,Bang Yai,Nonthaburi,11140,https://tatapi.tourismthailand.org/tatfs/Image/CustomPOI/Thumbnail/P03013385.jpeg,Nonthaburi,N/A,0.0,2020-02-20T19:30:00
P03014334,Wat Sao Thong Tong,13.91366944,100.4830947,ATTRACTION,Attraction,,,,,,,Ko Kret,Pak Kret,Nonthaburi,11120,https://tatapi.tourismthailand.org/tatfs/Image/CustomPOI/Thumbnail/P03014334.jpeg,Nonthaburi,N/A,0.0,2020-02-20T19:30:00
P03013509,Bang Rak Noi Agritourism,13.85188918,100.4572748,ATTRACTION,Attraction,,,,,,,Bang Rak Noi,Mueang Nonthaburi,Nonthaburi,11000,https://tatapi.tourismthailand.org/tatfs/IMAGE/CustomPOI/Thumbnail/P03013509_pic1.jpg,Nonthaburi,N/A,0.0,2020-02-20T19:30:00
P03013502,Wat Chomphu Wek,13.88740536,100.49645053,ATTRACTION,Attraction,,,,,,"79 Moo 4, Sanam Bin Nam-Nonthaburi Road",Tha Sai,Mueang Nonthaburi,Nonthaburi,11000,https://tatapi.tourismthailand.org/tatfs/Image/CustomPOI/Thumbnail/P03013502.jpeg,Nonthaburi,N/A,0.0,2020-02-20T19:30:00
P03013506,Wat Prang Luang,13.83954014,100.42300621,ATTRACTION,Attraction,,,,,,32 Moo 1,Bang Muang,Bang Yai,Nonthaburi,11140,https://tatapi.tourismthailand.org/tatfs/Image/CustomPOI/Thumbnail/P03013506.jpeg,Nonthaburi,N/A,0.0,2020-02-20T19:30:00
P03013504,Wat Pho Bang O,13.80953102,100.47179199,ATTRACTION,Attraction,,,,,,Bang Kruai-Sai Noi Road,Wat Chalo,Bang Kruai,Nonthaburi,11130,https://tatapi.tourismthailand.org/tatfs/Image/CustomPOI/Thumbnail/P03013504.jpeg,Nonthaburi,N/A,0.0,2020-02-20T19:30:00
P03013849,Wat Kaeo Fah,13.81865357,100.465535,ATTRACTION,Attraction,,,,,,,Bang Khanun,Bang Kruai,Nonthaburi,11130,https://tatapi.tourismthailand.org/tatfs/Image/CustomPOI/Thumbnail/P03013849.jpeg,Nonthaburi,N/A,0.0,2020-02-20T19:30:00
P03013850,Wat Bang Kanun,13.819532,100.458821,ATTRACTION,Attraction,,,,,,,Bang Khanun,Bang Kruai,Nonthaburi,11130,https://tatapi.tourismthailand.org/tatfs/Image/CustomPOI/Thumbnail/P03013850.jpeg,Nonthaburi,N/A,0.0,2020-02-20T19:30:00
P03013851,Wat Sri Prawat,13.80262666,100.4084932,ATTRACTION,Attraction,,,,,,,Plai Bang,Bang Kruai,Nonthaburi,11130,https://tatapi.tourismthailand.org/tatfs/Image/CustomPOI/Thumbnail/P03013851.jpeg,Nonthaburi,N/A,0.0,2020-02-20T19:30:00
P03013852,Wat Sak Yai,13.8134003,100.4692735,ATTRACTION,Attraction,,,,,,,Wat Chalo,Bang Kruai,Nonthaburi,11130,https://tatapi.tourismthailand.org/tatfs/Image/CustomPOI/Thumbnail/P03013852.jpeg,Nonthaburi,N/A,0.0,2020-02-20T19:30:00
P03013146,Wang Takien,13.82765891,100.422892,ATTRACTION,Attraction,,,,,,Nakhon In Road,Bang Khu Wiang,Bang Kruai,Nonthaburi,11130,https://tatapi.tourismthailand.org/tatfs/Image/CustomPOI/Thumbnail/P03013146.jpeg,Nonthaburi,N/A,0.0,2020-02-20T19:30:00
P03013845,Wat Chotikaram,13.82571342,100.4879163,ATTRACTION,Attraction,,,,,,,Bang Phai,Mueang Nonthaburi,Nonthaburi,11000,https://tatapi.tourismthailand.org/tatfs/Image/CustomPOI/Thumbnail/P03013845.jpeg,Nonthaburi,N/A,0.0,2020-02-20T19:30:00
P03013846,Wat Sangkatan,13.8260598,100.4926706,ATTRACTION,Attraction,,,,,,,Bang Phai,Mueang Nonthaburi,Nonthaburi,11000,https://tatapi.tourismthailand.org/tatfs/Image/CustomPOI/Thumbnail/P03013846.jpeg,Nonthaburi,N/A,0.0,2020-02-20T19:30:00
P03013855,Wat Sao Thong Hin,13.85623988,100.4242201,ATTRACTION,Attraction,,,,,,,Sao Thong Hin,Bang Yai,Nonthaburi,11140,https://tatapi.tourismthailand.org/tatfs/Image/CustomPOI/Thumbnail/P03013855.jpeg,Nonthaburi,N/A,0.0,2020-02-20T19:30:00
P03013856,Wat Ton Chueak,13.83922554,100.3387494,ATTRACTION,Attraction,,,,,,,Ban Mai,Bang Yai,Nonthaburi,11140,https://tatapi.tourismthailand.org/tatfs/Image/CustomPOI/Thumbnail/P03013856.jpeg,Nonthaburi,N/A,0.0,2020-02-20T19:30:00
P03013857,Wat Phra Non,13.84921025,100.3979556,ATTRACTION,Attraction,,,,,,,Bang Mae Nang,Bang Yai,Nonthaburi,11140,https://tatapi.tourismthailand.org/tatfs/Image/CustomPOI/Thumbnail/P03013857.jpeg,Nonthaburi,N/A,0.0,2020-02-20T19:30:00
P03013859,Wat Som Kliang,13.81327216,100.4100661,ATTRACTION,Attraction,,,,,,,Bang Khu Wiang,Bang Kruai,Nonthaburi,11130,https://tatapi.tourismthailand.org/tatfs/Image/CustomPOI/Thumbnail/P03013859.jpeg,Nonthaburi,N/A,0.0,2020-02-20T19:30:00
P03013860,Wat Bang Pai,13.87941708,100.4320351,ATTRACTION,Attraction,,,,,,,Bang Rak Phatthana,Bang Bua Thong,Nonthaburi,11110,https://tatapi.tourismthailand.org/tatfs/Image/CustomPOI/Thumbnail/P03013860.jpeg,Nonthaburi,N/A,0.0,2020-02-20T19:30:00
P03013861,Wat Laharn,13.91520973,100.4242903,ATTRACTION,Attraction,,,,,,,Sano Loi,Bang Bua Thong,Nonthaburi,11110,https://tatapi.tourismthailand.org/tatfs/Image/CustomPOI/Thumbnail/P03013861.jpeg,Nonthaburi,N/A,0.0,2020-02-20T19:30:00
P03013862,Wat Sai Yai,13.97710641,100.3094067,ATTRACTION,Attraction,,,,,,,Sai Noi,Sai Noi,Nonthaburi,11150,https://tatapi.tourismthailand.org/tatfs/Image/CustomPOI/Thumbnail/P03013862.jpeg,Nonthaburi,N/A,0.0,2020-02-20T19:30:00
P03007802,Wat Saphan Soong,13.92705617,100.47908682,ATTRACTION,Attraction,,,,,,,Khlong Phra Udom,Pak Kret,Nonthaburi,11120,https://tatapi.tourismthailand.org/tatfs/image/CustomPOI/Thumbnail/P03007802.jpg,Nonthaburi,N/A,0.0,2020-02-19T19:30:00
P03007058,Wat Chimphli Sutthawat,13.906477,100.489951,ATTRACTION,Attraction,,,,,,,Ko Kret,Pak Kret,Nonthaburi,11120,https://tatapi.tourismthailand.org/tatfs/image/CustomPOI/Thumbnail/P03007058.jpg,Nonthaburi,N/A,0.0,2020-02-19T19:30:00
P03004720,Wat Klang Kret,13.905546,100.491832,ATTRACTION,Attraction,,,,,,,Bang Talat,Pak Kret,Nonthaburi,11120,https://tatapi.tourismthailand.org/tatfs/Image/CustomPOI/Thumbnail/P03004720.jpeg,Nonthaburi,N/A,0.0,2020-02-18T19:30:00
P01001562,The Museum Of Nonthaburi,13.841549,100.49187,ATTRACTION,Attraction,,,,,,,Suan Yai,Mueang Nonthaburi,Nonthaburi,11000,https://tatapi.tourismthailand.org/tatfs/Image/CustomPOI/Thumbnail/P01001562.jpeg,Nonthaburi,N/A,0.0,2020-02-18T19:30:00
P03001715,Wat Choeng Len,13.897062,100.488378,ATTRACTION,Attraction,,,,,,,Tha it,Pak Kret,Nonthaburi,11120,https://tatapi.tourismthailand.org/tatfs/image/CustomPOI/Thumbnail/P03001715.jpg,Nonthaburi,N/A,0.0,2020-02-18T19:30:00
P03000006,Chalerm Phrakiat Caladium Village,13.990281,100.323061,ATTRACTION,Attraction,,,,,,,Sai Noi,Sai Noi,Nonthaburi,11150,https://tatapi.tourismthailand.org/tatfs/Image/CustomPOI/Thumbnail/P03000006.jpeg,Nonthaburi,N/A,0.0,2020-02-18T19:30:00
P01001650,The Former City Hall of Pathumtanee Province,14.020413,100.534216,ATTRACTION,Attraction,,,,,,,Bang Prok,Mueang Pathum Thani,Pathum Thani,12000,https://tatapi.tourismthailand.org/tatfs/Image/CustomPOI/Thumbnail/P01001650.jpeg,PATHUM THANI,N/A,0.0,2023-10-16T13:00:50.953
P03013519,Dream World,13.98768878,100.6748424,ATTRACTION,Attraction,Dreamworld,3,Recreational activity and tourist attraction,2,SHA Plus,"62 Moo 1, Rangsit-Ongkharak Road (Km.7)",Bueng Yi Tho,Thanyaburi,Pathum Thani,12130,https://tatapi.tourismthailand.org/tatfs/Image/CustomPOI/Thumbnail/P03013519.jpeg,PATHUM THANI,N/A,0.0,2023-10-16T13:00:47.99
P03000520,The Golden Jubilee Museum of Agriculture,14.11800053,100.62819979,ATTRACTION,Attraction,The Golden Jubilee Museum of Agriculture,3,Recreational activity and tourist attraction,2,SHA Plus,,Khlong Nueng,Khlong Luang,Pathum Thani,12120,https://tatapi.tourismthailand.org/tatfs/Image/CustomPOI/Thumbnail/P03000520.jpeg,PATHUM THANI,N/A,0.0,2023-10-16T13:00:28.753
P03001793,The Supreme Artist Hall,14.07238236,100.7046645,ATTRACTION,Attraction,,,,,,,Khlong ha,Khlong Luang,Pathum Thani,12120,https://tatapi.tourismthailand.org/tatfs/Image/CustomPOI/Thumbnail/P03001793.jpeg,PATHUM THANI,N/A,0.0,2023-10-16T13:00:25.49
P03025279,Wat Don Yai,13.98462035,100.77657458,ATTRACTION,Attraction,,,,,,,Lam Luk ka,Lam Luk ka,Pathum Thani,12150,https://tatapi.tourismthailand.org/tatfs/image/CustomPOI/Thumbnail/P03025279.jpeg,PATHUM THANI,N/A,0.0,2023-10-16T12:59:59.073
P03017257,Talaad Ingnam Samkok,14.10184,100.512911,ATTRACTION,Attraction,,,,,,,Bang Krabue,Sam Khok,Pathum Thani,12160,https://tatapi.tourismthailand.org/tatfs/Image/CustomPOI/Thumbnail/P03017257.jpeg,PATHUM THANI,N/A,0.0,2023-10-16T12:59:33.68
P03013388,Wat Chedi Hoi,14.11480635,100.382786,ATTRACTION,Attraction,,,,,,73 Moo 4 Pathum Thani-Bang Len Road,Bo Ngoen,Lat Lum Kaeo,Pathum Thani,12140,https://tatapi.tourismthailand.org/tatfs/IMAGE/CustomPOI/Thumbnail/P03013388_pic1.jpg,PATHUM THANI,N/A,0.0,2023-10-16T12:59:00.147
P03013390,National Science Museum,14.04859694,100.71722696,ATTRACTION,Attraction,NATIONAL SCIENCE MUSEUM,3,Recreational activity and tourist attraction,1,SHA,Rangsit-Nakhonnayok Road,Khlong ha,Khlong Luang,Pathum Thani,12110,https://tatapi.tourismthailand.org/tatfs/Image/custompoi/Thumbnail/P03013390.jpg,PATHUM THANI,N/A,0.0,2023-10-16T12:58:36.21
P01000347,Talaad Thai Market,14.082872,100.624482,ATTRACTION,Attraction,,,,,,,Khlong Nueng,Khlong Luang,Pathum Thani,12120,https://tatapi.tourismthailand.org/tatfs/image/CustomPOI/Thumbnail/P01000347.jpg,PATHUM THANI,N/A,0.0,2023-10-16T12:58:32.943
P03006136,Wat Bot,14.01894056,100.53982895,ATTRACTION,Attraction,,,,,,96 Moo 5,Ban Klang,Mueang Pathum Thani,Pathum Thani,12000,https://tatapi.tourismthailand.org/tatfs/Image/CustomPOI/Thumbnail/P03006136.jpg,PATHUM THANI,N/A,0.0,2023-10-16T12:58:04.973
P03013522,Wat Tai Ko Yai,14.12008539,100.52626374,ATTRACTION,Attraction,,,,,,87 Moo 3,Thai ko,Sam Khok,Pathum Thani,12160,https://tatapi.tourismthailand.org/tatfs/IMAGE/CustomPOI/Thumbnail/P03013522_pic1.jpg,PATHUM THANI,N/A,0.0,2022-02-28T10:53:16.837
P03013515,Wan Hongpathummawat,14.02416656,100.53457736,ATTRACTION,Attraction,,,,,,35 Thep Bumrung Road,Bang Prok,Mueang Pathum Thani,Pathum Thani,12000,https://tatapi.tourismthailand.org/tatfs/Image/CustomPOI/Thumbnail/P03013515.jpeg,PATHUM THANI,N/A,0.0,2021-10-08T12:31:01.903
P03018209,The National Archives in Commemoration of H.M. the King’s Golden Jubilee,14.071754,100.70564,ATTRACTION,Attraction,,,,,,,Khlong ha,Khlong Luang,Pathum Thani,12120,,PATHUM THANI,N/A,0.0,2021-10-08T10:56:40.74
P03018210,Boy Scout Camping Activity ,14.118775,100.505,ATTRACTION,Attraction,,,,,,,Thai ko,Sam Khok,Pathum Thani,12160,,PATHUM THANI,N/A,0.0,2020-09-11T13:49:10.353
P03017227,Khlong Rahaeng Old Market,14.04190717,100.4198293,ATTRACTION,Attraction,,,,,,Mu 4,Rahaeng,Lat Lum Kaeo,Pathum Thani,12140,https://tatapi.tourismthailand.org/tatfs/Image/CustomPOI/Thumbnail/P03017227.jpeg,PATHUM THANI,N/A,0.0,2020-03-09T16:00:16.283
P03013810,Thai Royal Mint,14.00964455,100.6166212,ATTRACTION,Attraction,,,,,,"13/1 Moo 2, Phahon Yothin Road",Khlong Nueng,Khlong Luang,Pathum Thani,12120,,PATHUM THANI,N/A,0.0,2020-03-02T14:13:15.363
P03017198,Wat Song Phi Nong,14.090056,100.539479,ATTRACTION,Attraction,,,,,,45,Ban Ngio,Sam Khok,Pathum Thani,12160,,PATHUM THANI,N/A,0.0,2020-03-02T14:10:25.007
P03017229,Wat Phlap Suthawat,14.100448,100.550596,ATTRACTION,Attraction,,,,,,Moo 5 Ban Wang,Chiang Rak Noi,Sam Khok,Pathum Thani,12160,,PATHUM THANI,N/A,0.0,2020-03-02T14:08:44.343
P03017196,Wat Bang Na,14.03428843,100.5434947,ATTRACTION,Attraction,,,,,,48 Moo 4,Bang Pho Nuea,Sam Khok,Pathum Thani,12160,,PATHUM THANI,N/A,0.0,2020-03-02T14:07:33.26
P03017228,Wat Metarang,14.10944184,100.55248618,ATTRACTION,Attraction,,,,,,Moo 3,Chiang Rak Noi,Sam Khok,Pathum Thani,12160,,PATHUM THANI,N/A,0.0,2020-03-02T14:05:27.23
P03017197,Wat Sala Daeng Nuea,14.09481534,100.5456521,ATTRACTION,Attraction,,,,,,Moo 2,Ban Ngio,Sam Khok,Pathum Thani,12160,,PATHUM THANI,N/A,0.0,2020-03-02T14:03:10.63
P03017203,Wat Chankapho,14.07267385,100.5229333,ATTRACTION,Attraction,,,,,,Moo 3 Ban Tak Daet,Bang Toei,Sam Khok,Pathum Thani,12160,,PATHUM THANI,N/A,0.0,2020-03-02T14:01:00.743
P03001309,Wat Lam Maha Mek,14.102113,100.358978,ATTRACTION,Attraction,,,,,,Moo 5,Bo Ngoen,Lat Lum Kaeo,Pathum Thani,12140,,PATHUM THANI,N/A,0.0,2020-03-02T13:55:35.763
P03001650,Wat Mun Chindaram,14.008115,100.709107,ATTRACTION,Attraction,,,,,,,Bueng Yi Tho,Thanyaburi,Pathum Thani,12130,,PATHUM THANI,N/A,0.0,2020-03-02T13:51:21.683
P03017199,Wat Khien Khet,13.99951203,100.67702823,ATTRACTION,Attraction,,,,,,"43 Moo 2, Rangsit-Nakhonnayok Road",Bueng Yi Tho,Thanyaburi,Pathum Thani,12130,,PATHUM THANI,N/A,0.0,2020-03-02T13:48:34.9
P03017223,Rangsit Floating Market,13.98780618,100.6343217,ATTRACTION,Attraction,,,,,,Rangsit-Nakhonnayok Road,Pracha Thipat,Thanyaburi,Pathum Thani,12130,https://tatapi.tourismthailand.org/tatfs/Image/CustomPOI/Thumbnail/P03017223.jpeg,PATHUM THANI,N/A,0.0,2020-03-02T13:45:35.517
P03017222,Wat Khok,13.9987972,100.53266181,ATTRACTION,Attraction,,,,,,,Bang Prok,Mueang Pathum Thani,Pathum Thani,12000,,PATHUM THANI,N/A,0.0,2020-03-02T13:43:25.637
P03017221,Wat Pa Klang Thung,13.95834966,100.5304946,ATTRACTION,Attraction,,,,,,111 Moo 2 Ban Bang Khayaeng,Bang Khayaeng,Mueang Pathum Thani,Pathum Thani,12000,,PATHUM THANI,N/A,0.0,2020-03-02T13:37:03.553
P03017219,Wat Nam Won,13.97467878,100.5258815,ATTRACTION,Attraction,,,,,,1 Moo 6 Pathum Thani-Sai Nai Road,Bang Duea,Mueang Pathum Thani,Pathum Thani,12000,,PATHUM THANI,N/A,0.0,2020-03-02T13:35:24.553
P03017220,Wat Bang Luang,13.992811,100.526544,ATTRACTION,Attraction,,,,,,"53 Moo 2 Ban Bang Luang, Pathum Thani-Sai Nai Road",Bang Luang,Mueang Pathum Thani,Pathum Thani,12000,https://tatapi.tourismthailand.org/tatfs/Image/CustomPOI/Thumbnail/P03017220.jpeg,PATHUM THANI,N/A,0.0,2020-03-02T13:35:03.707
P03017218,Wat Chang,14.005131,100.537242,ATTRACTION,Attraction,,,,,,107 Moo 6 Ban Chang,Bang Prok,Mueang Pathum Thani,Pathum Thani,12000,,PATHUM THANI,N/A,0.0,2020-03-02T13:30:34.237
P03008354,Rare Stone Museum,14.00500835,100.5640545,ATTRACTION,Attraction,,,,,,Moo 1,Ban Klang,Mueang Pathum Thani,Pathum Thani,12000,https://tatapi.tourismthailand.org/tatfs/image/CustomPOI/Thumbnail/P03008354.jpg,PATHUM THANI,N/A,0.0,2020-03-02T13:28:21.143
P03017216,Kanjanaphisek National Museum,14.07007092,100.70009565,ATTRACTION,Attraction,,,,,,,Khlong ha,Khlong Luang,Pathum Thani,12110,https://tatapi.tourismthailand.org/tatfs/Image/CustomPOI/Thumbnail/P03017216.jpeg,PATHUM THANI,N/A,0.0,2020-03-02T13:20:55.817
P03013389,Rangsit Science Centres for Education,14.0297913,100.72265793,ATTRACTION,Attraction,,,,,,5 Moo 2,Khlong Hok,Khlong Luang,Pathum Thani,12110,https://tatapi.tourismthailand.org/tatfs/Image/CustomPOI/Thumbnail/P03013389.jpeg,Pathum Thani,N/A,0.0,2020-02-20T19:30:00
P03013386,Wat Chedi Thong,14.08671441,100.52456699,ATTRACTION,Attraction,,,,,,Moo 1 Pathum Thani-Sam Khok Road,Khlong Khwai,Sam Khok,Pathum Thani,12160,https://tatapi.tourismthailand.org/tatfs/IMAGE/CustomPOI/Thumbnail/P03013386_pic1.jpg,Pathum Thani,N/A,0.0,2020-02-20T19:30:00
P03013387,Wat Phai Lom,14.07773728,100.52750501,ATTRACTION,Attraction,,,,,,29,Ban Ngio,Sam Khok,Pathum Thani,12160,https://tatapi.tourismthailand.org/tatfs/Image/CustomPOI/Thumbnail/P03013387.jpeg,Pathum Thani,N/A,0.0,2020-02-20T19:30:00
P03013865,Wat Tamnak,14.062694,100.534159,ATTRACTION,Attraction,,,,,,,Sam Khok,Sam Khok,Pathum Thani,12160,https://tatapi.tourismthailand.org/tatfs/Image/CustomPOI/Thumbnail/P03013865.jpeg,Pathum Thani,N/A,0.0,2020-02-20T19:30:00
P03013516,The City Pillar Shrine of Pathumtanee Province,14.02081857,100.52505609,ATTRACTION,Attraction,,,,,,Pathum Thani-Bang Khu Wat Road,Bang Prok,Mueang Pathum Thani,Pathum Thani,12000,https://tatapi.tourismthailand.org/tatfs/Image/CustomPOI/Thumbnail/P03013516.jpeg,Pathum Thani,N/A,0.0,2020-02-20T19:30:00
P03013517,Southeast Asian Ceramics Museum (SEACM),14.04023494,100.6084149,ATTRACTION,Attraction,,,,,,"9/1 Moo 5, Phahon Yothin Road",Khlong Nueng,Khlong Luang,Pathum Thani,13180,https://tatapi.tourismthailand.org/tatfs/Image/CustomPOI/Thumbnail/P03013517.jpeg,Pathum Thani,N/A,0.0,2020-02-20T19:30:00
P03013514,Wat Chettawong,13.96874956,100.5292289,ATTRACTION,Attraction,,,,,,307,Bang Khayaeng,Mueang Pathum Thani,Pathum Thani,12000,https://tatapi.tourismthailand.org/tatfs/Image/CustomPOI/Thumbnail/P03013514.jpeg,Pathum Thani,N/A,0.0,2020-02-20T19:30:00
P03013523,Wat Sing,14.05356877,100.54091566,ATTRACTION,Attraction,,,,,,"17 Moo 1, Pathum Thani-Sam Khok Road",Sam Khok,Sam Khok,Pathum Thani,12160,https://tatapi.tourismthailand.org/tatfs/Image/CustomPOI/Thumbnail/P03013523.jpeg,Pathum Thani,N/A,0.0,2020-02-20T19:30:00
P03013524,Wat Sakae,14.0585082,100.53668255,ATTRACTION,Attraction,,,,,,42,Sam Khok,Sam Khok,Pathum Thani,12160,https://tatapi.tourismthailand.org/tatfs/Image/CustomPOI/Thumbnail/P03013524.jpeg,Pathum Thani,N/A,0.0,2020-02-20T19:30:00
P03013520,Wat Bua Kwan,14.0092363,100.42479285,ATTRACTION,Attraction,,,,,,1 Pathum Thani-Lat Lum Kaeo Road,Lat Lum Kaeo,Lat Lum Kaeo,Pathum Thani,12140,https://tatapi.tourismthailand.org/tatfs/IMAGE/CustomPOI/Thumbnail/P03013520_pic1.jpg,Pathum Thani,N/A,0.0,2020-02-20T19:30:00
P03013521,Wat Puetudom,13.95691434,100.88704137,ATTRACTION,Attraction,,,,,,"25 Moo 9, Lam Luk Ka Road",Phuet Udom,Lam Luk ka,Pathum Thani,12150,https://tatapi.tourismthailand.org/tatfs/IMAGE/CustomPOI/Thumbnail/P03013521_pic1.jpg,Pathum Thani,N/A,0.0,2020-02-20T19:30:00
P03007682,National Geological Museum,14.0702464,100.7046679,ATTRACTION,Attraction,Golden Jubilee National Geological Museum,3,Recreational activity and tourist attraction,2,SHA Plus,,Khlong ha,Khlong Luang,Pathum Thani,12120,https://tatapi.tourismthailand.org/tatfs/Image/custompoi/Thumbnail/P03007682.jpg,Pathum Thani,N/A,0.0,2020-02-19T19:30:00
P03009876,Reun Phae Khao,14.02166404,100.53515947,ATTRACTION,Attraction,,,,,,,Bang Prok,Mueang Pathum Thani,Pathum Thani,12000,https://tatapi.tourismthailand.org/tatfs/image/CustomPOI/Thumbnail/P03009876.jpg,Pathum Thani,N/A,0.0,2020-02-19T19:30:00
P03000911,The National Memorial,13.952096,100.621156,ATTRACTION,Attraction,,,,,,,Khu Khot,Lam Luk ka,Pathum Thani,12130,https://tatapi.tourismthailand.org/tatfs/Image/CustomPOI/Thumbnail/P03000911.jpeg,Pathum Thani,N/A,0.0,2020-02-18T19:30:00
P03001999,Wat Chinawararam,13.966589,100.530837,ATTRACTION,Attraction,,,,,,,Bang Khayaeng,Mueang Pathum Thani,Pathum Thani,12000,https://tatapi.tourismthailand.org/tatfs/Image/CustomPOI/Thumbnail/P03001999.jpeg,Pathum Thani,N/A,0.0,2020-02-18T19:30:00
P03008371,Wang Chang Ayutthaya Lae Phaniat,14.37836474,100.56954972,ATTRACTION,Attraction,,,,,,,Pratu Chai,Phra Nakhon Si Ayutthaya,Phra Nakhon Si Ayutthaya,13000,https://tatapi.tourismthailand.org/tatfs/Image/CustomPOI/Thumbnail/P03008371.jpeg,PHRA NAKHON SI AYUTTHAYA,N/A,0.0,2024-04-04T11:02:58.153
P03025424,Wihan Phramongkhon Bophit,14.35482058,100.55770464,ATTRACTION,Attraction,,,,,,,Pratu Chai,Phra Nakhon Si Ayutthaya,Phra Nakhon Si Ayutthaya,13000,https://tatapi.tourismthailand.org/tatfs/Image/CustomPOI/Thumbnail/P03025424.jpeg,PHRA NAKHON SI AYUTTHAYA,['อยุธยา'],0.0,2024-03-09T10:59:04.96
P03005128,Ayutthaya Historical Study Centre,14.349312,100.56558,ATTRACTION,Attraction,Ayutthaya Historical Study Center,3,Recreational activity and tourist attraction,1,SHA,,Pratu Chai,Phra Nakhon Si Ayutthaya,Phra Nakhon Si Ayutthaya,13000,https://tatapi.tourismthailand.org/tatfs/Image/custompoi/Thumbnail/P03005128.jpg,PHRA NAKHON SI AYUTTHAYA,N/A,0.0,2024-01-30T14:40:27.457
P03013754,Wat Tan En,14.51898307,100.5602464,ATTRACTION,Attraction,,,,,,,Tan en,Bang Pahan,Phra Nakhon Si Ayutthaya,13220,https://tatapi.tourismthailand.org/tatfs/Image/CustomPOI/Thumbnail/P03013754.jpeg,PHRA NAKHON SI AYUTTHAYA,N/A,0.0,2024-01-30T14:39:26.617
P03013532,Wat Satue,14.55891508,100.75743588,ATTRACTION,Attraction,,,,,,140 Moo 6,Tha Luang,Tha Ruea,Phra Nakhon Si Ayutthaya,18270,https://tatapi.tourismthailand.org/tatfs/Image/CustomPOI/Thumbnail/P03013532.jpeg,PHRA NAKHON SI AYUTTHAYA,N/A,0.0,2024-01-30T14:36:19.373
P03013185,Wat Kasattrathirat Worawihan,14.35204817,100.54420344,ATTRACTION,Attraction,,,,,,15 Moo 7 Sena-Suphan Road,Ban Pom,Phra Nakhon Si Ayutthaya,Phra Nakhon Si Ayutthaya,13000,https://tatapi.tourismthailand.org/tatfs/Image/CustomPOI/Thumbnail/P03013185.jpeg,PHRA NAKHON SI AYUTTHAYA,N/A,0.0,2024-01-30T14:35:44.097
P03005433,Wat Mae Nang Pleum,14.368006,100.5712,ATTRACTION,Attraction,,,,,,,Hua ro,Phra Nakhon Si Ayutthaya,Phra Nakhon Si Ayutthaya,13000,https://tatapi.tourismthailand.org/tatfs/Image/CustomPOI/Thumbnail/P03005433.jpeg,PHRA NAKHON SI AYUTTHAYA,N/A,0.0,2024-01-30T14:35:19.767
P03013536,Ta Lad Gong Kong,14.28322333,100.57620118,ATTRACTION,Attraction,Talard Kong Khong Ban Sangsom,3,Recreational activity and tourist attraction,1,SHA,Mu 5,Ban Pho,Bang PA-in,Phra Nakhon Si Ayutthaya,13160,https://tatapi.tourismthailand.org/tatfs/Image/custompoi/Thumbnail/P03013536.jpg,PHRA NAKHON SI AYUTTHAYA,['อยุธยา'],0.0,2024-01-30T14:34:14.057
P03017937,Wat Sala Pun,14.36108165,100.54924226,ATTRACTION,Attraction,,,,,,,Tha Wasukri,Phra Nakhon Si Ayutthaya,Phra Nakhon Si Ayutthaya,13000,https://tatapi.tourismthailand.org/tatfs/Image/CustomPOI/Thumbnail/P03017937.jpeg,PHRA NAKHON SI AYUTTHAYA,N/A,0.0,2024-01-30T14:27:24.03
P03013183,Wat Suwan Dararam Ratchaworawihan,14.34847997,100.57842948,ATTRACTION,Attraction,,,,,,Moo 1 U Thong Road,Ho Rattana Chai,Phra Nakhon Si Ayutthaya,Phra Nakhon Si Ayutthaya,13000,https://tatapi.tourismthailand.org/tatfs/Image/CustomPOI/Thumbnail/P03013183.jpeg,PHRA NAKHON SI AYUTTHAYA,N/A,0.0,2024-01-30T14:20:51.957
P03025411,Wat Phra Si Sanphet,14.35592394,100.55832286,ATTRACTION,Attraction,,,,,,,Pratu Chai,Phra Nakhon Si Ayutthaya,Phra Nakhon Si Ayutthaya,13000,https://tatapi.tourismthailand.org/tatfs/Image/CustomPOI/Thumbnail/P03025411.jpeg,PHRA NAKHON SI AYUTTHAYA,['อยุธยา'],0.0,2024-01-30T14:20:20.28
P03005413,Wat Phutthaisawan,14.339602,100.558212,ATTRACTION,Attraction,,,,,,U Thong Road,Samphao Lom,Phra Nakhon Si Ayutthaya,Phra Nakhon Si Ayutthaya,13000,https://tatapi.tourismthailand.org/tatfs/Image/CustomPOI/Thumbnail/P03005413.jpeg,PHRA NAKHON SI AYUTTHAYA,N/A,0.0,2024-01-30T14:19:50.477
P03025414,Wat Phananchoeng,14.34413142,100.5789532,ATTRACTION,Attraction,,,,,,,Kamang,Phra Nakhon Si Ayutthaya,Phra Nakhon Si Ayutthaya,13000,https://tatapi.tourismthailand.org/tatfs/Image/CustomPOI/Thumbnail/P03025414.jpeg,PHRA NAKHON SI AYUTTHAYA,['อยุธยา'],0.0,2024-01-30T14:19:17.767
P03025412,Wat Na Phramen,14.36260354,100.55871245,ATTRACTION,Attraction,,,,,,,Khlong Sa Bua,Phra Nakhon Si Ayutthaya,Phra Nakhon Si Ayutthaya,13000,https://tatapi.tourismthailand.org/tatfs/Image/CustomPOI/Thumbnail/P03025412.jpeg,PHRA NAKHON SI AYUTTHAYA,['วัดหน้าพระเมรุ'],0.0,2024-01-30T14:18:48.013
P03000686,The Ancient Palace,14.359215,100.557615,ATTRACTION,Attraction,,,,,,,Pratu Chai,Phra Nakhon Si Ayutthaya,Phra Nakhon Si Ayutthaya,13000,https://tatapi.tourismthailand.org/tatfs/Image/CustomPOI/Thumbnail/P03000686.jpeg,PHRA NAKHON SI AYUTTHAYA,N/A,0.0,2024-01-30T14:07:20.063
P03013534,Arts and Craft International Cantre of Thailand,14.14965109,100.52222164,ATTRACTION,Attraction,,,,,,59 Moo 4,Pho Taeng,Bang Sai,Phra Nakhon Si Ayutthaya,13290,https://tatapi.tourismthailand.org/tatfs/Image/CustomPOI/Thumbnail/P03013534.jpeg,PHRA NAKHON SI AYUTTHAYA,N/A,0.0,2024-01-30T14:06:09.613
P03017935,Wat Latchado,14.46192501,100.320721,ATTRACTION,Attraction,,,,,,92 Moo 3,Nong Nam Yai,Phak Hai,Phra Nakhon Si Ayutthaya,13280,,PHRA NAKHON SI AYUTTHAYA,N/A,0.0,2024-01-30T14:05:07.033
P03013874,Wat Phran Nok,14.35526256,100.78071706,ATTRACTION,Attraction,,,,,,Moo 2,Pho Sao Han,Uthai,Phra Nakhon Si Ayutthaya,13210,,PHRA NAKHON SI AYUTTHAYA,N/A,0.0,2024-01-30T14:04:26.887
P03013196,Japanese Village,14.33267921,100.57773714,ATTRACTION,Attraction,,,,,,Chedi-Wat Dusidaram Road,Kamang,Phra Nakhon Si Ayutthaya,Phra Nakhon Si Ayutthaya,13000,https://tatapi.tourismthailand.org/tatfs/Image/CustomPOI/Thumbnail/P03013196.jpeg,PHRA NAKHON SI AYUTTHAYA,['อยุธยา'],0.0,2023-10-15T17:57:38.707
P03019029,Baan Hollanda,14.340706,100.57724727,ATTRACTION,Attraction,Baan Hollanda,3,Recreational activity and tourist attraction,2,SHA Plus,,Kamang,Phra Nakhon Si Ayutthaya,Phra Nakhon Si Ayutthaya,13000,https://tatapi.tourismthailand.org/tatfs/Image/CustomPOI/Thumbnail/P03019029.jpeg,PHRA NAKHON SI AYUTTHAYA,['อยุธยา'],0.0,2023-10-15T17:57:34.533
P03008087,Wat Borom Phuttharam,14.34747392,100.56131265,ATTRACTION,Attraction,,,,,,,Pratu Chai,Phra Nakhon Si Ayutthaya,Phra Nakhon Si Ayutthaya,13000,https://tatapi.tourismthailand.org/tatfs/Image/CustomPOI/Thumbnail/P03008087.jpeg,PHRA NAKHON SI AYUTTHAYA,N/A,0.0,2023-10-15T17:48:39.16
P03005452,Wat Niwet Thamprawat,14.23120134,100.57605471,ATTRACTION,Attraction,,,,,,60 Mu 12,Ban Len,Bang PA-in,Phra Nakhon Si Ayutthaya,13160,https://tatapi.tourismthailand.org/tatfs/Image/CustomPOI/Thumbnail/P03005452.jpeg,PHRA NAKHON SI AYUTTHAYA,['อยุธยา'],0.0,2023-10-15T17:18:28.977
P03005500,Wat Phra Mahathat,14.356954,100.567529,ATTRACTION,Attraction,Wat Mahathat,3,Recreational activity and tourist attraction,2,SHA Plus,,Pratu Chai,Phra Nakhon Si Ayutthaya,Phra Nakhon Si Ayutthaya,13000,https://tatapi.tourismthailand.org/tatfs/Image/CustomPOI/Thumbnail/P03005500.jpeg,PHRA NAKHON SI AYUTTHAYA,['อยุธยา'],0.0,2023-10-15T17:14:43.983
P03013182,Wat Sena Sanaram,14.36351351,100.57361623,ATTRACTION,Attraction,,,,,,"101 Moo 10, U Thong Road",Hua ro,Phra Nakhon Si Ayutthaya,Phra Nakhon Si Ayutthaya,13000,https://tatapi.tourismthailand.org/tatfs/Image/CustomPOI/Thumbnail/P03013182.jpeg,PHRA NAKHON SI AYUTTHAYA,N/A,0.0,2023-10-15T13:58:43.55
P03002991,Bang Pa-in Palace,14.2327968,100.57906264,ATTRACTION,Attraction,,,,,,,Ban Len,Bang PA-in,Phra Nakhon Si Ayutthaya,13160,https://tatapi.tourismthailand.org/tatfs/Image/CustomPOI/Thumbnail/P03002991.jpeg,PHRA NAKHON SI AYUTTHAYA,"['พระราชวังบางปะอิน', 'อยุธยา']",0.0,2023-10-15T13:56:35.55
P03013199,Elephant Kraal Pavilion,14.37673353,100.5687351,ATTRACTION,Attraction,,,,,,"74/1 Moo 3, Highway 3060",Suan Phrik,Phra Nakhon Si Ayutthaya,Phra Nakhon Si Ayutthaya,13000,https://tatapi.tourismthailand.org/tatfs/IMAGE/CustomPOI/Thumbnail/P03013199_pic1.jpg,PHRA NAKHON SI AYUTTHAYA,N/A,0.0,2023-10-15T13:56:31.963
P03013186,Wat Chaiwatthanaram,14.34300103,100.54190699,ATTRACTION,Attraction,Wat Chaiwatthanaram,3,Recreational activity and tourist attraction,2,SHA Plus,Mu 9,Ban Pom,Phra Nakhon Si Ayutthaya,Phra Nakhon Si Ayutthaya,13000,https://tatapi.tourismthailand.org/tatfs/Image/custompoi/Thumbnail/P03013186.jpg,PHRA NAKHON SI AYUTTHAYA,['อยุธยา'],0.0,2023-10-10T18:05:15.703
P03013184,Wat Lokkayasutha ,14.35553913,100.55290645,ATTRACTION,Attraction,,,,,,199/29 U Thong Road,Pratu Chai,Phra Nakhon Si Ayutthaya,Phra Nakhon Si Ayutthaya,13000,https://tatapi.tourismthailand.org/tatfs/Image/CustomPOI/Thumbnail/P03013184.jpeg,PHRA NAKHON SI AYUTTHAYA,"['วัดพระนอน', 'อยุธยา']",0.0,2023-10-10T18:05:08.173
P03025413,Wat Yai Chaimongkhon,14.34560015,100.59301326,ATTRACTION,Attraction,,,,,,,Khlong Suan Phlu,Phra Nakhon Si Ayutthaya,Phra Nakhon Si Ayutthaya,13000,https://tatapi.tourismthailand.org/tatfs/Image/CustomPOI/Thumbnail/P03025413.jpeg,PHRA NAKHON SI AYUTTHAYA,['อยุธยา'],0.0,2023-10-10T18:04:32.98
P03025410,Wat Phra Ngam,14.37101008,100.55532471,ATTRACTION,Attraction,,,,,,,Khlong Sa Bua,Phra Nakhon Si Ayutthaya,Phra Nakhon Si Ayutthaya,13000,https://tatapi.tourismthailand.org/tatfs/Image/CustomPOI/Thumbnail/P03025410.jpeg,PHRA NAKHON SI AYUTTHAYA,['อยุธยา'],0.0,2023-10-10T18:04:09.84
P03005528,Wat Kudidao,14.363164,100.589959,ATTRACTION,Attraction,,,,,,,Phai Ling,Phra Nakhon Si Ayutthaya,Phra Nakhon Si Ayutthaya,13000,https://tatapi.tourismthailand.org/tatfs/Image/CustomPOI/Thumbnail/P03005528.jpeg,PHRA NAKHON SI AYUTTHAYA,N/A,0.0,2021-01-22T10:20:19.763
P03005408,Wat Thammikarat,14.359946,100.56194,ATTRACTION,Attraction,,,,,,,Tha Wasukri,Phra Nakhon Si Ayutthaya,Phra Nakhon Si Ayutthaya,13000,https://tatapi.tourismthailand.org/tatfs/Image/CustomPOI/Thumbnail/P03005408.jpeg,PHRA NAKHON SI AYUTTHAYA,N/A,0.0,2020-06-22T13:37:20.57
P03002766,The King Naresuan the Great Monument,14.3720294,100.54185345,ATTRACTION,Attraction,,,,,,,Lumphli,Phra Nakhon Si Ayutthaya,Phra Nakhon Si Ayutthaya,13000,https://tatapi.tourismthailand.org/tatfs/Image/CustomPOI/Thumbnail/P03002766.jpeg,PHRA NAKHON SI AYUTTHAYA,N/A,0.0,2020-06-22T10:49:56.307
P03007616,Phra Chedi Sisuriyothai,14.352614,100.547402,ATTRACTION,Attraction,,,,,,,Pratu Chai,Phra Nakhon Si Ayutthaya,Phra Nakhon Si Ayutthaya,13000,https://tatapi.tourismthailand.org/tatfs/Image/CustomPOI/Thumbnail/P03007616.jpeg,PHRA NAKHON SI AYUTTHAYA,N/A,0.0,2020-06-19T16:12:44.827
P03007668,Wat Phra Si Sanphet,14.35594569,100.55834407,ATTRACTION,Attraction,Wat Phra Sri Sanphet,3,Recreational activity and tourist attraction,2,SHA Plus,,Pratu Chai,Phra Nakhon Si Ayutthaya,Phra Nakhon Si Ayutthaya,13000,https://tatapi.tourismthailand.org/tatfs/Image/custompoi/Thumbnail/P03007668.jpg,PHRA NAKHON SI AYUTTHAYA,N/A,0.0,2020-06-19T16:01:13.253
P03012187,Wat Nang Kui,14.34635149,100.5734486,ATTRACTION,Attraction,,,,,,,Samphao Lom,Phra Nakhon Si Ayutthaya,Phra Nakhon Si Ayutthaya,13000,https://tatapi.tourismthailand.org/tatfs/Image/CustomPOI/Thumbnail/P03012187.jpeg,PHRA NAKHON SI AYUTTHAYA,N/A,0.0,2020-06-19T15:52:58.927
P03012188,Institute of Ayutthaya Studies,14.34996821,100.5663412,ATTRACTION,Attraction,,,,,,,Pratu Chai,Phra Nakhon Si Ayutthaya,Phra Nakhon Si Ayutthaya,13000,https://tatapi.tourismthailand.org/tatfs/Image/CustomPOI/Thumbnail/P03012188.jpeg,PHRA NAKHON SI AYUTTHAYA,N/A,0.0,2020-06-19T15:49:56.247
P03013188,Wat Samanakottharam,14.36143125,100.59026473,ATTRACTION,Attraction,,,,,,65/2 Highway 3058,Phai Ling,Phra Nakhon Si Ayutthaya,Phra Nakhon Si Ayutthaya,13000,https://tatapi.tourismthailand.org/tatfs/Image/CustomPOI/Thumbnail/P03013188.jpeg,PHRA NAKHON SI AYUTTHAYA,N/A,0.0,2020-06-19T09:51:56.213
P03013191,Wat Chumphon Nikayaram,14.23697358,100.58111989,ATTRACTION,Attraction,,,,,,Moo 4,Ban Len,Bang PA-in,Phra Nakhon Si Ayutthaya,13160,https://tatapi.tourismthailand.org/tatfs/Image/CustomPOI/Thumbnail/P03013191.jpeg,PHRA NAKHON SI AYUTTHAYA,N/A,0.0,2020-06-19T09:35:25.55
P03013195,Khun Phaen Residence,14.35336593,100.5593641,ATTRACTION,Attraction,,,,,,Pa Thon Road,Pratu Chai,Phra Nakhon Si Ayutthaya,Phra Nakhon Si Ayutthaya,13000,https://tatapi.tourismthailand.org/tatfs/Image/CustomPOI/Thumbnail/P03013195.jpeg,PHRA NAKHON SI AYUTTHAYA,N/A,0.0,2020-06-18T16:38:16.517
P03013197,King U-Thong Monument,14.35607113,100.56069123,ATTRACTION,Attraction,,,,,,Naresuan Road,Pratu Chai,Phra Nakhon Si Ayutthaya,Phra Nakhon Si Ayutthaya,13000,https://tatapi.tourismthailand.org/tatfs/Image/CustomPOI/Thumbnail/P03013197.jpeg,PHRA NAKHON SI AYUTTHAYA,N/A,0.0,2020-06-18T16:06:12.067
P03013201,Prasat Nakhon Luang,14.46684674,100.6107401,ATTRACTION,Attraction,,,,,,184/1 Moo 1,Nakhon Luang,Nakhon Luang,Phra Nakhon Si Ayutthaya,13260,https://tatapi.tourismthailand.org/tatfs/Image/CustomPOI/Thumbnail/P03013201.jpeg,PHRA NAKHON SI AYUTTHAYA,N/A,0.0,2020-06-18T15:50:11.423
P03013661,Wat Tum,14.38844045,100.536435,ATTRACTION,Attraction,,,,,,,Wat Tum,Phra Nakhon Si Ayutthaya,Phra Nakhon Si Ayutthaya,13000,https://tatapi.tourismthailand.org/tatfs/Image/CustomPOI/Thumbnail/P03013661.jpeg,PHRA NAKHON SI AYUTTHAYA,N/A,0.0,2020-06-18T15:35:47.233
P03013758,Somdet Phra Suriyothai Monument,14.38380732,100.52622063,ATTRACTION,Attraction,,,,,,,Ban Mai,Phra Nakhon Si Ayutthaya,Phra Nakhon Si Ayutthaya,13000,https://tatapi.tourismthailand.org/tatfs/Image/CustomPOI/Thumbnail/P03013758.jpeg,PHRA NAKHON SI AYUTTHAYA,N/A,0.0,2020-06-18T15:01:30.487
P03013530,Wat Worachetha Ram,14.35703309,100.5532301,ATTRACTION,Attraction,,,,,,,Pratu Chai,Phra Nakhon Si Ayutthaya,Phra Nakhon Si Ayutthaya,13000,https://tatapi.tourismthailand.org/tatfs/Image/CustomPOI/Thumbnail/P03013530.jpeg,PHRA NAKHON SI AYUTTHAYA,N/A,0.0,2020-06-18T14:36:09.727
P03013533,Rama VI Dam,14.55875064,100.7614167,ATTRACTION,Attraction,,,,,,Moo 10,Tha Luang,Tha Ruea,Phra Nakhon Si Ayutthaya,18270,https://tatapi.tourismthailand.org/tatfs/Image/CustomPOI/Thumbnail/P03013533.jpeg,PHRA NAKHON SI AYUTTHAYA,N/A,0.0,2020-06-18T14:12:38.52
P03009789,Thung Bua Chom Floating Market,14.291145,100.818178,ATTRACTION,Attraction,,,,,,,Sanap Thuep,Wang Noi,Phra Nakhon Si Ayutthaya,13170,https://tatapi.tourismthailand.org/tatfs/Image/CustomPOI/Thumbnail/P03009789.jpeg,PHRA NAKHON SI AYUTTHAYA,N/A,0.0,2020-06-18T10:58:38.093
P03017905,Talat Lat Chado,14.352222,100.576667,ATTRACTION,Attraction,,,,,,,Ho Rattana Chai,Phra Nakhon Si Ayutthaya,Phra Nakhon Si Ayutthaya,13000,https://tatapi.tourismthailand.org/tatfs/Image/CustomPOI/Thumbnail/P03017905.jpeg,PHRA NAKHON SI AYUTTHAYA,N/A,0.0,2020-06-18T10:37:13.287
P03005542,Wat Cherng Tha,14.362037,100.555188,ATTRACTION,Attraction,,,,,,,Tha Wasukri,Phra Nakhon Si Ayutthaya,Phra Nakhon Si Ayutthaya,13000,https://tatapi.tourismthailand.org/tatfs/image/CustomPOI/Thumbnail/P03005542.jpg,PHRA NAKHON SI AYUTTHAYA,N/A,0.0,2020-03-18T14:20:13.13
P03013872,Wat Suttawas Vipassana,14.20515782,100.3138531,ATTRACTION,Attraction,,,,,,1 Moo 4 Ban Taphang Khlon,Lat Bua Luang,Lat Bua Luang,Phra Nakhon Si Ayutthaya,13230,https://tatapi.tourismthailand.org/tatfs/Image/CustomPOI/Thumbnail/P03013872.jpeg,PHRA NAKHON SI AYUTTHAYA,N/A,0.0,2020-02-27T14:42:55.75
P03013873,Wat Bang Nom Kho,14.32292168,100.4253968,ATTRACTION,Attraction,,,,,,,Bang Nom Kho,Sena,Phra Nakhon Si Ayutthaya,13110,https://tatapi.tourismthailand.org/tatfs/Image/CustomPOI/Thumbnail/P03013873.jpeg,Phra Nakhon Si Ayutthaya,N/A,0.0,2020-02-20T19:30:00
P03013866,Wat Kluay,14.35086095,100.5828462,ATTRACTION,Attraction,,,,,,,Kamang,Phra Nakhon Si Ayutthaya,Phra Nakhon Si Ayutthaya,13000,https://tatapi.tourismthailand.org/tatfs/Image/CustomPOI/Thumbnail/P03013866.jpeg,Phra Nakhon Si Ayutthaya,N/A,0.0,2020-02-20T19:30:00
P03013867,Wat Chang Yai,14.16146304,100.5136038,ATTRACTION,Attraction,,,,,,,Chang Yai,Bang Sai,Phra Nakhon Si Ayutthaya,13290,https://tatapi.tourismthailand.org/tatfs/Image/CustomPOI/Thumbnail/P03013867.jpeg,Phra Nakhon Si Ayutthaya,N/A,0.0,2020-02-20T19:30:00
P03013869,Wat Pichai Songkram,14.3541446,100.5824545,ATTRACTION,Attraction,,,,,,,Kamang,Phra Nakhon Si Ayutthaya,Phra Nakhon Si Ayutthaya,13000,https://tatapi.tourismthailand.org/tatfs/Image/CustomPOI/Thumbnail/P03013869.jpeg,Phra Nakhon Si Ayutthaya,N/A,0.0,2020-02-20T19:30:00
P03013870,Saint Joseph Church,14.33895614,100.5506521,ATTRACTION,Attraction,,,,,,,Samphao Lom,Phra Nakhon Si Ayutthaya,Phra Nakhon Si Ayutthaya,13000,https://tatapi.tourismthailand.org/tatfs/Image/CustomPOI/Thumbnail/P03013870.jpeg,Phra Nakhon Si Ayutthaya,N/A,0.0,2020-02-20T19:30:00
P03013871,Masjid Nurul Yaman,14.38171133,100.5490606,ATTRACTION,Attraction,,,,,,,Lumphli,Phra Nakhon Si Ayutthaya,Phra Nakhon Si Ayutthaya,13000,https://tatapi.tourismthailand.org/tatfs/Image/CustomPOI/Thumbnail/P03013871.jpeg,Phra Nakhon Si Ayutthaya,N/A,0.0,2020-02-20T19:30:00
P03013535,Mon Museum,14.28823429,100.5669643,ATTRACTION,Attraction,,,,,,23/2 Moo 4,Khanon Luang,Bang PA-in,Phra Nakhon Si Ayutthaya,13160,https://tatapi.tourismthailand.org/tatfs/Image/CustomPOI/Thumbnail/P03013535.jpeg,Phra Nakhon Si Ayutthaya,N/A,0.0,2020-02-20T19:30:00
P03013526,Phanomyong Memorial,14.36034171,100.55222064,ATTRACTION,Attraction,,,,,,"40 Moo 2, U Thong Road",Tha Wasukri,Phra Nakhon Si Ayutthaya,Phra Nakhon Si Ayutthaya,13000,https://tatapi.tourismthailand.org/tatfs/Image/CustomPOI/Thumbnail/P03013526.jpeg,Phra Nakhon Si Ayutthaya,N/A,0.0,2020-02-20T19:30:00
P03013755,City Wall and Fortresse,14.34658996,100.5762252,ATTRACTION,Attraction,,,,,,,Ho Rattana Chai,Phra Nakhon Si Ayutthaya,Phra Nakhon Si Ayutthaya,13000,https://tatapi.tourismthailand.org/tatfs/Image/CustomPOI/Thumbnail/P03013755.jpeg,Phra Nakhon Si Ayutthaya,N/A,0.0,2020-02-20T19:30:00
P03013756,Somdet Phra Si Nakharin Park,14.34122367,100.55167266,ATTRACTION,Attraction,,,,,,,Pratu Chai,Phra Nakhon Si Ayutthaya,Phra Nakhon Si Ayutthaya,13000,https://tatapi.tourismthailand.org/tatfs/Image/CustomPOI/Thumbnail/P03013756.jpeg,Phra Nakhon Si Ayutthaya,N/A,0.0,2020-02-20T19:30:00
P03013757,Si Suriyothai Park,14.35186059,100.55032485,ATTRACTION,Attraction,,,,,,,Pratu Chai,Phra Nakhon Si Ayutthaya,Phra Nakhon Si Ayutthaya,13000,https://tatapi.tourismthailand.org/tatfs/Image/CustomPOI/Thumbnail/P03013757.jpeg,Phra Nakhon Si Ayutthaya,N/A,0.0,2020-02-20T19:30:00
P03013192,Wat Kai,14.50965071,100.52259079,ATTRACTION,Attraction,,,,,,"2 Moo 3, Highway 32",Han Sang,Bang Pahan,Phra Nakhon Si Ayutthaya,13220,https://tatapi.tourismthailand.org/tatfs/IMAGE/CustomPOI/Thumbnail/P03013192_pic1.jpg,Phra Nakhon Si Ayutthaya,N/A,0.0,2020-02-20T19:30:00
P03013202,Handicrafted Aranyik Knife Villages,14.50382229,100.65170813,ATTRACTION,Attraction,,,,,,162/3 Moo 7,Tha Chang,Nakhon Luang,Phra Nakhon Si Ayutthaya,13260,https://tatapi.tourismthailand.org/tatfs/IMAGE/CustomPOI/Thumbnail/P03013202_pic1.jpg,Phra Nakhon Si Ayutthaya,N/A,0.0,2020-02-20T19:30:00
P03014322,Archive of Queen Suriyothai Monument,14.38181025,100.5279639,ATTRACTION,Attraction,,,,,,,Ban Mai,Phra Nakhon Si Ayutthaya,Phra Nakhon Si Ayutthaya,13000,https://tatapi.tourismthailand.org/tatfs/Image/CustomPOI/Thumbnail/P03014322.jpeg,Phra Nakhon Si Ayutthaya,N/A,0.0,2020-02-20T19:30:00
P03012189,Sian Chang Market,14.36138266,100.5932232,ATTRACTION,Attraction,,,,,,,Han Tra,Phra Nakhon Si Ayutthaya,Phra Nakhon Si Ayutthaya,13000,https://tatapi.tourismthailand.org/tatfs/Image/CustomPOI/Thumbnail/P03012189.jpeg,Phra Nakhon Si Ayutthaya,N/A,0.0,2020-02-19T19:30:00
P03012185,Jao Mae Soi Dork Mark Shrine,14.344499,100.579135,ATTRACTION,Attraction,,,,,,,Kamang,Phra Nakhon Si Ayutthaya,Phra Nakhon Si Ayutthaya,13000,https://tatapi.tourismthailand.org/tatfs/image/CustomPOI/Thumbnail/P03012185.jpg,Phra Nakhon Si Ayutthaya,N/A,0.0,2020-02-19T19:30:00
P03006702,Chankasem National Museum,14.365417,100.575057,ATTRACTION,Attraction,,,,,,U Thong Road,Ho Rattana Chai,Phra Nakhon Si Ayutthaya,Phra Nakhon Si Ayutthaya,13000,https://tatapi.tourismthailand.org/tatfs/Image/CustomPOI/Thumbnail/P03006702.jpeg,Phra Nakhon Si Ayutthaya,N/A,0.0,2020-02-19T19:30:00
P03013875,Wat Lat Rahong,14.24776284,100.5356446,ATTRACTION,Attraction,,,,,,4 Moo 5,Wat Yom,Bang PA-in,Phra Nakhon Si Ayutthaya,13160,https://tatapi.tourismthailand.org/tatfs/Image/CustomPOI/Thumbnail/P03013875.jpeg,PHRA NAKHON SI AYUTTHAYA,N/A,0.0,2020-02-19T14:28:49.213
P03005287,Wat Racha Praditsathan,14.362515,100.568363,ATTRACTION,Attraction,,,,,,,Hua ro,Phra Nakhon Si Ayutthaya,Phra Nakhon Si Ayutthaya,13000,https://tatapi.tourismthailand.org/tatfs/image/CustomPOI/Thumbnail/P03005287.jpg,Phra Nakhon Si Ayutthaya,N/A,0.0,2020-02-18T19:30:00
P03005105,Thai Boat Museum,14.356545,100.571999,ATTRACTION,Attraction,,,,,,,Pratu Chai,Phra Nakhon Si Ayutthaya,Phra Nakhon Si Ayutthaya,13000,https://tatapi.tourismthailand.org/tatfs/image/CustomPOI/Thumbnail/P03005105.jpg,Phra Nakhon Si Ayutthaya,N/A,0.0,2020-02-18T19:30:00
P03005225,Wang Lang,14.35021199,100.5475876,ATTRACTION,Attraction,,,,,,,Pratu Chai,Phra Nakhon Si Ayutthaya,Phra Nakhon Si Ayutthaya,13000,https://tatapi.tourismthailand.org/tatfs/Image/CustomPOI/Thumbnail/P03005225.jpeg,Phra Nakhon Si Ayutthaya,N/A,0.0,2020-02-18T19:30:00
P03013540,Wat Sraket,14.69562417,100.45316213,ATTRACTION,Attraction,,,,,,,Chaiyaphum,Chaiyo,Ang Thong,14140,https://tatapi.tourismthailand.org/tatfs/Image/CustomPOI/Thumbnail/P03013540.jpeg,ANG THONG,N/A,0.0,2023-10-16T13:44:58.297
P03005138,Wat Sa Kaeo,14.458431,100.46112,ATTRACTION,Attraction,,,,,,,Bang Sadet,Pa Mok,Ang Thong,14130,https://tatapi.tourismthailand.org/tatfs/Image/CustomPOI/Thumbnail/P03005138.jpeg,ANG THONG,N/A,0.0,2023-10-16T13:20:54
P03018240,"Nong Chet Sen, Kaem Ling Area Development Royal Initiative Project",14.52994818,100.49223103,ATTRACTION,Attraction,,,,,,,Hua Phai,Mueang Ang Thong,Ang Thong,14130,,ANG THONG,['โครงการพัฒนาพื้นที่แก้มลิงหนองเจ็ดเส้น อันเนื่องมาจากพระราชดำริ'],0.0,2023-10-10T16:38:20.7
P03013876,Tambon Ekkarat Drum-Making Village,14.49988548,100.43136131,ATTRACTION,Attraction,,,,,,Moo 7,Pa Mok,Pa Mok,Ang Thong,14130,https://tatapi.tourismthailand.org/tatfs/Image/CustomPOI/Thumbnail/P03013876.jpeg,ANG THONG,N/A,0.0,2023-10-10T16:38:01.663
P03018546,Wat Ta It ,14.637508,100.413096,ATTRACTION,Attraction,,,,,,,Bang Phlap,Pho Thong,Ang Thong,14120,,ANG THONG,N/A,0.0,2023-10-10T16:37:52.377
P03013541,Wat Tha Suthawat,14.45046457,100.46238396,ATTRACTION,Attraction,,,,,,,Bang Sadet,Pa Mok,Ang Thong,14130,https://tatapi.tourismthailand.org/tatfs/Image/CustomPOI/Thumbnail/P03013541.jpeg,ANG THONG,N/A,0.0,2023-10-10T16:37:44.72
P03013537,Wat Chantharangsi,14.56331781,100.46886881,ATTRACTION,Attraction,,,,,,Mu 9,Hua Phai,Mueang Ang Thong,Ang Thong,14000,https://tatapi.tourismthailand.org/tatfs/Image/CustomPOI/Thumbnail/P03013537.jpeg,ANG THONG,N/A,0.0,2023-10-10T16:37:35.55
P03013538,Wat Ton Son,14.59306414,100.45981161,ATTRACTION,Attraction,,,,,,Moo 10 Thetsaban Road 10,Talat Luang,Mueang Ang Thong,Ang Thong,14000,https://tatapi.tourismthailand.org/tatfs/Image/CustomPOI/Thumbnail/P03013538.jpeg,ANG THONG,N/A,0.0,2023-10-10T16:37:17.27
P03018236,"Long Boat Hospital, Wat Suwannaratchahong",14.73507355,100.41387348,ATTRACTION,Attraction,,,,,,,Ongkharak,Pho Thong,Ang Thong,14120,,ANG THONG,['โรงพยาบาลเรือ อ่างทอง'],0.0,2023-10-10T16:37:10.2
P03013539,Wat Chaiyo Worawihan,14.71798925,100.43692199,ATTRACTION,Attraction,,,,,,Mu 3 Ang Thong-Sing Buri Road,Chaiyo,Chaiyo,Ang Thong,14140,https://tatapi.tourismthailand.org/tatfs/IMAGE/CustomPOI/Thumbnail/P03013539_pic1.jpg,ANG THONG,N/A,0.0,2023-10-10T16:37:02.71
P03025779,Into Farm,14.724008,100.336537,ATTRACTION,Attraction,,,,,,,Si Phran,Sawaeng ha,Ang Thong,14150,,ANG THONG,N/A,0.0,2023-10-10T16:36:57.277
P03010513,Ban Hun Lek,14.62793256,100.4731123,ATTRACTION,Attraction,BANHUNLEK,3,Recreational activity and tourist attraction,1,SHA,"41/2 Moo 6 TalatKruat District Amphoe Muang Ang Thong, Ang Thong, 14000",Talat Kruat,Mueang Ang Thong,Ang Thong,14000,,ANG THONG,N/A,0.0,2023-10-10T16:36:26.293
P03017208,Ban Bang Sadet Court Doll Center,14.450227,100.461136,ATTRACTION,Attraction,Baan Bang Sadet Court Doll Center,10,Souvenir shop and other shops,1,SHA,,Bang Pla Kot,Pa Mok,Ang Thong,14130,https://tatapi.tourismthailand.org/tatfs/Image/custompoi/Thumbnail/P03017208.jpg,ANG THONG,N/A,0.0,2023-10-10T16:36:16.653
P03018527,Community Base Tourism Bang-Chao-cha,14.703059,100.418243,ATTRACTION,Attraction,Community Base Tourism Bang-Chao-cha,3,Recreational activity and tourist attraction,1,SHA,Moo 8,Bang Chao Cha,Pho Thong,Ang Thong,14120,https://tatapi.tourismthailand.org/tatfs/Image/custompoi/Thumbnail/P03018527.jpg,ANG THONG,N/A,0.0,2023-10-10T16:36:05.793
P03001132,Kham Yat Palace,14.657958,100.337008,ATTRACTION,Attraction,,,,,,,Kham Yat,Pho Thong,Ang Thong,14120,https://tatapi.tourismthailand.org/tatfs/Image/CustomPOI/Thumbnail/P03001132.jpeg,ANG THONG,N/A,0.0,2023-10-10T16:35:40.297
P03000381,Wat Khun Inthapramun,14.64272,100.4276,ATTRACTION,Attraction,,,,,,,Inthapramun,Pho Thong,Ang Thong,14120,https://tatapi.tourismthailand.org/tatfs/Image/CustomPOI/Thumbnail/P03000381.jpeg,ANG THONG,N/A,0.0,2023-10-10T16:34:56.39
P03013542,Wat Pa Mok Worawihan,14.48220613,100.44837842,ATTRACTION,Attraction,,,,,,,Pa Mok,Pa Mok,Ang Thong,14130,https://tatapi.tourismthailand.org/tatfs/Image/CustomPOI/Thumbnail/P03013542.jpeg,ANG THONG,N/A,0.0,2023-10-10T16:34:29.51
P03017171,Wat Nang Nai Thammikaram,14.59666628,100.3536902,ATTRACTION,Attraction,,,,,,,San Chao Rong Thong,Wiset Chai Chan,Ang Thong,14110,,ANG THONG,N/A,0.0,2023-10-10T16:32:27.067
P01000743,San Chao Rong Thong Market ,14.59485,100.354277,ATTRACTION,Attraction,,,,,,,San Chao Rong Thong,Wiset Chai Chan,Ang Thong,14110,https://tatapi.tourismthailand.org/tatfs/Image/CustomPOI/Thumbnail/P01000743.jpeg,ANG THONG,N/A,0.0,2023-10-10T16:31:58.35
P03000563,Wat Muang,14.593657,100.380349,ATTRACTION,Attraction,,,,,,Moo 6,Phai Chamsin,Wiset Chai Chan,Ang Thong,14110,https://tatapi.tourismthailand.org/tatfs/Image/CustomPOI/Thumbnail/P03000563.jpeg,ANG THONG,N/A,0.0,2023-10-10T16:31:42.9
P03006433,Wat Thanon,14.441876,100.463594,ATTRACTION,Attraction,,,,,,,Phong Pheng,Pa Mok,Ang Thong,14130,https://tatapi.tourismthailand.org/tatfs/Image/CustomPOI/Thumbnail/P03006433.jpeg,ANG THONG,N/A,0.0,2021-07-02T15:28:55.737
P03017181,Wat Sangkratai,14.60325832,100.4381047,ATTRACTION,Attraction,,,,,,Moo 4,Sala Daeng,Mueang Ang Thong,Ang Thong,14000,https://tatapi.tourismthailand.org/tatfs/Image/CustomPOI/Thumbnail/P03017181.jpeg,ANG THONG,N/A,0.0,2021-02-04T15:33:42.18
P03018090,Wat Bot,14.621982,100.452144,ATTRACTION,Attraction,,,,,,,Yan Sue,Mueang Ang Thong,Ang Thong,14000,https://tatapi.tourismthailand.org/tatfs/Image/CustomPOI/Thumbnail/P03018090.jpg,ANG THONG,N/A,0.0,2021-02-04T15:26:31.647
P03017321,Wat Pho Thong,14.64951829,100.35457855,ATTRACTION,Attraction,,,,,,Mu 9 Ban Pho Thong,Kham Yat,Pho Thong,Ang Thong,14120,https://tatapi.tourismthailand.org/tatfs/Image/CustomPOI/Thumbnail/P03017321.jpeg,ANG THONG,N/A,0.0,2021-02-04T15:24:07.407
P03017317,Wat Plot Sat,14.56397435,100.44457773,ATTRACTION,Attraction,,,,,,Moo. 4 Ban Hae,Ban Hae,Mueang Ang Thong,Ang Thong,14000,https://tatapi.tourismthailand.org/tatfs/Image/CustomPOI/Thumbnail/P03017317.jpeg,ANG THONG,N/A,0.0,2021-02-04T15:19:42.09
P03018239,Monument of King Naresuan the Great and King Ekathotsarot,14.48043577,100.44688744,ATTRACTION,Attraction,,,,,,Wat Pamok Worawihan,Pa Mok,Pa Mok,Ang Thong,14130,,ANG THONG,['พระบรมราชานุสาวรีย์สมเด็จพระนเรศวรมหาราช และสมเด็จพระเอกาทศรถ '],0.0,2020-09-21T11:00:30.86
P03018237,Chaopho Guan Yu Shrine,14.59308947,100.35359368,ATTRACTION,Attraction,,,,,,,San Chao Rong Thong,Wiset Chai Chan,Ang Thong,14110,,ANG THONG,['ศาลเจ้าพ่อกวนอู'],0.0,2020-09-21T10:27:57.6
P03009852,Museum of Ang Thong Legend,14.58989144,100.4550755,ATTRACTION,Attraction,,,,,,,Bang Kaeo,Mueang Ang Thong,Ang Thong,14000,https://tatapi.tourismthailand.org/tatfs/Image/CustomPOI/Thumbnail/P03009852.jpeg,ANG THONG,N/A,0.0,2020-09-15T14:08:13.25
P03017314,Wat Khoi-Fish Park,14.62335837,100.36533991,ATTRACTION,Attraction,,,,,,Mu 1,Pho Rang Nok,Pho Thong,Ang Thong,14120,https://tatapi.tourismthailand.org/tatfs/Image/CustomPOI/Thumbnail/P03017314.jpeg,ANG THONG,N/A,0.0,2020-06-17T14:05:17.957
P03017214,Wat Phinitthammasan,14.48331253,100.4529722,ATTRACTION,Attraction,,,,,,Ayutthaya-Pa Mok Road,Bang Pla Kot,Pa Mok,Ang Thong,14130,,ANG THONG,N/A,0.0,2020-06-17T11:55:02.847
P03017212,Wat Chula Mani,14.72453398,100.40664844,ATTRACTION,Attraction,,,,,,Mu 3,Ongkharak,Pho Thong,Ang Thong,14120,https://tatapi.tourismthailand.org/tatfs/Image/CustomPOI/Thumbnail/P03017212.jpeg,ANG THONG,N/A,0.0,2020-06-17T11:40:40.677
P03013877,Nai Dok Nai Thong Kaeo Monument,14.586458,100.353288,ATTRACTION,Attraction,,,,,,,Phai Chamsin,Wiset Chai Chan,Ang Thong,14110,https://tatapi.tourismthailand.org/tatfs/Image/CustomPOI/Thumbnail/P03013877.jpeg,ANG THONG,N/A,0.0,2020-06-17T11:21:03.59
P03013545,Wat Ban Phran,14.72602941,100.3315948,ATTRACTION,Attraction,,,,,,95 Moo 1,Si Phran,Sawaeng ha,Ang Thong,14150,https://tatapi.tourismthailand.org/tatfs/Image/CustomPOI/Thumbnail/P03013545.jpeg,ANG THONG,N/A,0.0,2020-06-17T10:51:23.88
P03007215,Phanthai Norasing Monument,14.51692033,100.4574183,ATTRACTION,Attraction,,,,,,Mu 2,Norasing,Pa Mok,Ang Thong,14130,https://tatapi.tourismthailand.org/tatfs/Image/CustomPOI/Thumbnail/P03007215.jpeg,ANG THONG,N/A,0.0,2020-06-16T10:47:47.65
P03005579,Wat Oi,14.611588,100.357285,ATTRACTION,Attraction,,,,,,Mu 10,San Chao Rong Thong,Wiset Chai Chan,Ang Thong,14110,https://tatapi.tourismthailand.org/tatfs/Image/CustomPOI/Thumbnail/P03005579.jpeg,ANG THONG,N/A,0.0,2020-06-16T10:07:26.4
P03005503,Wat Khian,14.603382,100.350069,ATTRACTION,Attraction,,,,,,Moo 8,San Chao Rong Thong,Wiset Chai Chan,Ang Thong,14110,https://tatapi.tourismthailand.org/tatfs/Image/CustomPOI/Thumbnail/P03005503.jpeg,ANG THONG,N/A,0.0,2020-06-16T10:03:53.813
P03005482,Wat Wiset Chai Chan,14.587813,100.352333,ATTRACTION,Attraction,,,,,,,Phai Chamsin,Wiset Chai Chan,Ang Thong,14110,https://tatapi.tourismthailand.org/tatfs/Image/CustomPOI/Thumbnail/P03005482.jpeg,ANG THONG,N/A,0.0,2020-06-16T09:55:20.823
P03005464,Wat Si Roi,14.554275,100.365585,ATTRACTION,Attraction,,,,,,Mu 4 Wiset-Phak Hai Road,Si Roi,Wiset Chai Chan,Ang Thong,14110,https://tatapi.tourismthailand.org/tatfs/Image/CustomPOI/Thumbnail/P03005464.jpeg,ANG THONG,N/A,0.0,2020-06-16T09:47:58.313
P03001403,Wat Yang,14.799626,100.325241,ATTRACTION,Attraction,,,,,,,Huai Phai,Sawaeng ha,Ang Thong,14150,,ANG THONG,N/A,0.0,2020-06-16T09:20:44.173
P03000555,Lyle's Flying Foxes at Wat Chantaram,14.670746,100.37609,ATTRACTION,Attraction,,,,,,Mu 5,Khok Phutsa,Pho Thong,Ang Thong,14120,https://tatapi.tourismthailand.org/tatfs/Image/CustomPOI/Thumbnail/P03000555.jpeg,ANG THONG,N/A,0.0,2020-06-15T16:09:40.347
P03000535,Wat Suwansewariyaram,14.61609,100.459506,ATTRACTION,Attraction,,,,,,,Talat Kruat,Mueang Ang Thong,Ang Thong,14000,https://tatapi.tourismthailand.org/tatfs/Image/CustomPOI/Thumbnail/P03000535.jpeg,ANG THONG,N/A,0.0,2020-06-15T15:23:29.753
P03000528,Wat Ratchapaksi,14.550537,100.448094,ATTRACTION,Attraction,,,,,,,Pho sa,Mueang Ang Thong,Ang Thong,14000,https://tatapi.tourismthailand.org/tatfs/Image/CustomPOI/Thumbnail/P03000528.jpeg,ANG THONG,N/A,0.0,2020-06-15T15:16:26.05
P03000489,Wat Ang Thong Worawihan (Ang Thong Worawihan Templ,14.589617,100.456165,ATTRACTION,Attraction,,,,,,,Bang Kaeo,Mueang Ang Thong,Ang Thong,14000,https://tatapi.tourismthailand.org/tatfs/Image/CustomPOI/Thumbnail/P03000489.jpeg,ANG THONG,N/A,0.0,2020-06-15T15:11:02.62
P03000424,Wat Mathurottiyaram,14.588618,100.481267,ATTRACTION,Attraction,,,,,,,Ban it,Mueang Ang Thong,Ang Thong,14000,https://tatapi.tourismthailand.org/tatfs/Image/CustomPOI/Thumbnail/P03000424.jpeg,ANG THONG,N/A,0.0,2020-06-15T15:06:54.9
P03000376,Wat Chai Mongkhon,14.583925,100.446313,ATTRACTION,Attraction,,,,,,,Talat Luang,Mueang Ang Thong,Ang Thong,14000,https://tatapi.tourismthailand.org/tatfs/Image/CustomPOI/Thumbnail/P03000376.jpeg,ANG THONG,N/A,0.0,2020-06-15T13:54:48.227
P03000358,Wat Prasat,14.661551,100.463568,ATTRACTION,Attraction,,,,,,Mu 2,Ratsathit,Chaiyo,Ang Thong,14140,https://tatapi.tourismthailand.org/tatfs/Image/CustomPOI/Thumbnail/P03000358.jpeg,ANG THONG,N/A,0.0,2020-06-15T09:55:09.66
P03015681,Wat Klang Ta Kam,14.81590737,100.36618028,ATTRACTION,Attraction,,,,,,Mu 3,Tha Kham,Khai Bang Rachan,Sing Buri,16150,,SING BURI,N/A,0.0,2023-10-16T13:44:40.497
P03013886,Wat Champa Thong,14.79468019,100.3959296,ATTRACTION,Attraction,,,,,,,Thon Samo,Tha Chang,Sing Buri,16140,https://tatapi.tourismthailand.org/tatfs/Image/CustomPOI/Thumbnail/P03013886.jpeg,SING BURI,N/A,0.0,2023-10-16T13:44:37.227
P03013884,Burmese Camp Ditch,14.81433936,100.4481996,ATTRACTION,Attraction,,,,,,,Ban Paeng,Phrom Buri,Sing Buri,16120,https://tatapi.tourismthailand.org/tatfs/Image/CustomPOI/Thumbnail/P03013884.jpeg,SING BURI,N/A,0.0,2023-10-16T13:44:33.76
P03013883,Maenam Noi Kiln,14.92394364,100.2708672,ATTRACTION,Attraction,,,,,,,Choeng Klat,Bang Rachan,Sing Buri,16130,https://tatapi.tourismthailand.org/tatfs/Image/CustomPOI/Thumbnail/P03013883.jpeg,SING BURI,N/A,0.0,2023-10-16T13:44:30.94
